{
	"1": {
		"name": "수성점",
		"tel": "053-742-6886",
		"address": "대구 수성 수성1가 73 삼우수성타운상가 A동 103호",
		"lng": "128.61194233460046",
		"lat": "35.858902610949556"
	},
	"2": {
		"name": "봉곡점",
		"tel": "054-451-6126",
		"address": "경북 구미시 봉곡동 381-4",
		"lng": "128.3132461853219",
		"lat": "36.149504604155844"
	},
	"3": {
		"name": "진천점",
		"tel": "043-534-9292",
		"address": "충북 진천군 이월면 사곡리 600-1 부영아파트상가 105호",
		"lng": "127.43978039022",
		"lat": "36.87516223253795"
	},
	"4": {
		"name": "경희대점",
		"tel": "02-966-2225",
		"address": "서울 동대문구 회기동 1 경희대학교 ",
		"lng": "127.05325681202898",
		"lat": "37.59634688714704"
	},
	"5": {
		"name": "신월점",
		"tel": "02-2698-0117",
		"address": "서울 양천구 신월1동 93-4",
		"lng": "126.83294004561024",
		"lat": "37.53631008903954"
	},
	"6": {
		"name": "상동점",
		"tel": "061-281-5790",
		"address": "전남 목포시 상동 주공2단지상가1층",
		"lng": "126.41290197598141",
		"lat": "34.812812168770165"
	},
	"7": {
		"name": "장성점",
		"tel": "061-394-3944",
		"address": "전남 장성군 장성읍 영천리 1053-16",
		"lng": "126.78291982149713",
		"lat": "35.30110779909454"
	},
	"8": {
		"name": "동신대점",
		"tel": "061-330-2922",
		"address": "전남 나주시 대호동252번지 동신대학교 첨단 강의관2층",
		"lng": "126.7195170765686",
		"lat": "35.050072970260175"
	},
	"9": {
		"name": "충주2점",
		"tel": "043-845-9282",
		"address": "충북 충주시 용산동 1645",
		"lng": "127.9418529338731",
		"lat": "36.96187406441364"
	},
	"10": {
		"name": "건국대점",
		"tel": "02-452-7567",
		"address": "서울 광진구 화양동 1번지 건국대학교 학생회관",
		"lng": "127.07372651707584",
		"lat": "37.5425428517053"
	},
	"11": {
		"name": "광혜원점",
		"tel": "043-535-8292",
		"address": "충북 진천군 광혜원면 광혜원리 386-7번지",
		"lng": "127.44302574202781",
		"lat": "36.988712143501616"
	},
	"12": {
		"name": "엄궁점",
		"tel": "051-326-4816",
		"address": "부산 사상구 엄궁동 코오롱@상가 201호",
		"lng": "128.9783122523532",
		"lat": "35.12647177147734"
	},
	"13": {
		"name": "군산나운점",
		"tel": "063-461-4800",
		"address": "전북 군산시 나운동 316-20번지",
		"lng": "126.70178371321529",
		"lat": "35.96203483100635"
	},
	"14": {
		"name": "오이도점",
		"tel": "031-433-9282",
		"address": "경기 시흥시 정왕3동 2017-4호    ",
		"lng": "126.69095251786929",
		"lat": "37.343027115654714"
	},
	"15": {
		"name": "연성점",
		"tel": "031-404-9291",
		"address": "경기 시흥시 장곡동 822-4번지 1층",
		"lng": "126.78528083364034",
		"lat": "37.37917603429189"
	},
	"16": {
		"name": "상지대점",
		"tel": "033-744-7382",
		"address": "강원 원주시 우산동 660 상지대학교(744-7382)",
		"lng": "127.9282281099561",
		"lat": "37.370754689951134"
	},
	"17": {
		"name": "진북점",
		"tel": "063-253-5689",
		"address": "전북 전주시 덕진구 금암동 728-30번지",
		"lng": "127.13343250884665",
		"lat": "35.838845783971294"
	},
	"18": {
		"name": "오산운암점",
		"tel": "031-377-6262",
		"address": "경기 오산시 오산동 917-2번지 ",
		"lng": "127.07847967248567",
		"lat": "37.157202194461064"
	},
	"19": {
		"name": "금장점",
		"tel": "054-775-3382",
		"address": "경북 경주시 현곡면 금장리 410-9번지",
		"lng": "129.20353726835543",
		"lat": "35.867649728733284"
	},
	"20": {
		"name": "와동점",
		"tel": "031-483-1414",
		"address": "경기 안산시 단원구 와동 819-15번지",
		"lng": "126.8189310766283",
		"lat": "37.3381563444078"
	},
	"21": {
		"name": "부곡온천점",
		"tel": "055-521-1302",
		"address": "경남 창녕군 부곡면 거문리 215-9번지",
		"lng": "128.58600884993965",
		"lat": "35.44102347220214"
	},
	"22": {
		"name": "시흥점",
		"tel": "031-313-9292",
		"address": "경기 시흥시 신천동 886-2번지",
		"lng": "126.7908565013276",
		"lat": "37.43189923992076"
	},
	"23": {
		"name": "경주역점",
		"tel": "054-776-4545",
		"address": "경북 경주시 황오동 125-6번지",
		"lng": "129.2175488294044",
		"lat": "35.84275730188167"
	},
	"24": {
		"name": "영화점",
		"tel": "031-251-7666",
		"address": "경기 수원시 장안구 영화동 356-1번지",
		"lng": "127.01056474076945",
		"lat": "37.290146750906416"
	},
	"25": {
		"name": "안강점",
		"tel": "054-763-8006",
		"address": "경북 경주시 안강읍 산대리 2378-24번지 에덴아파트상가",
		"lng": "129.1941492638426",
		"lat": "36.00434662270077"
	},
	"26": {
		"name": "내외점",
		"tel": "055-337-9982",
		"address": "경남 김해시 외동 1217-7번지 ",
		"lng": "128.85917175176849",
		"lat": "35.231988876269675"
	},
	"27": {
		"name": "순천북부점",
		"tel": "061-753-1180",
		"address": "전남 순천시 석현동 88-5번지 2층",
		"lng": "127.48482344612273",
		"lat": "34.96883868124601"
	},
	"28": {
		"name": "문수점",
		"tel": "061-651-1991",
		"address": "전남 여수시 여서로 174",
		"lng": "127.70060222145638",
		"lat": "34.74841103532543"
	},
	"29": {
		"name": "오목천점",
		"tel": "031-295-4457",
		"address": "경기 수원시 권선구 오목천동 472-24번지",
		"lng": "126.96327159691512",
		"lat": "37.243546856261446"
	},
	"30": {
		"name": "양산용두점",
		"tel": "062-573-9233",
		"address": "광주 북구 양산동 283-48번지",
		"lng": "126.87144114885677",
		"lat": "35.20612076911205"
	},
	"31": {
		"name": "두암점",
		"tel": "062-262-9592",
		"address": "광주 북구 두암동 826-40번지",
		"lng": "126.93301905711672",
		"lat": "35.17394885312892"
	},
	"32": {
		"name": "영동점",
		"tel": "043-744-4458",
		"address": "충북 영동군 영동읍 계산리 655-13번지",
		"lng": "127.78499918792413",
		"lat": "36.17187171936504"
	},
	"33": {
		"name": "상관신리점",
		"tel": "063-231-9949",
		"address": "전북 완주군 상관면 신리 607-2 지큐빌@상가 109호",
		"lng": "127.20775437078188",
		"lat": "35.77065540280278"
	},
	"34": {
		"name": "상무대점",
		"tel": "061-394-9232",
		"address": "전남 장성군.읍 삼계면 사창리 398",
		"lng": "126.66502228912137",
		"lat": "35.25924744894129"
	},
	"35": {
		"name": "곤양점",
		"tel": "055-854-3474",
		"address": "경남 사천시 곤양면 성내리 199",
		"lng": "127.960669365536",
		"lat": "35.057279786116126"
	},
	"36": {
		"name": "서교합정점",
		"tel": "02-323-5285",
		"address": "서울 마포구 합정동 438-12",
		"lng": "126.90746626149004",
		"lat": "37.55072149194014"
	},
	"37": {
		"name": "국동점",
		"tel": "061-641-3739",
		"address": "전남 여수시 국동 1105 경남@상가 1-5",
		"lng": "127.71226646733751",
		"lat": "34.72968804802111"
	},
	"38": {
		"name": "덕신점",
		"tel": "052-239-9253",
		"address": "울산 울주군 온산읍 덕신리 1356-13",
		"lng": "129.30722510909118",
		"lat": "35.43868384311525"
	},
	"39": {
		"name": "아진점",
		"tel": "052-295-9991",
		"address": "울산 북구 천곡동 266-4",
		"lng": "129.33191664840552",
		"lat": "35.63928236218066"
	},
	"40": {
		"name": "(신)조례점",
		"tel": "061-727-3525",
		"address": "전남 순천시 조례동 1714-1",
		"lng": "127.5181773620343",
		"lat": "34.95494594053877"
	},
	"41": {
		"name": "석전양덕점",
		"tel": "055-298-0110",
		"address": "경남 마산시 석전2동 248-9",
		"lng": "128.57590682423327",
		"lat": "35.23138792324354"
	},
	"42": {
		"name": "구서점",
		"tel": "051-516-2334",
		"address": "부산 금정구 구서2동 742-172 동국빌딩 1층",
		"lng": "129.08654695920168",
		"lat": "35.25567288996687"
	},
	"43": {
		"name": "일산점",
		"tel": "031-917-8844",
		"address": "경기 고양시 일산서구 일산3동 1077번지 후곡15단지 건영상가 118호",
		"lng": "126.76904051975413",
		"lat": "37.67847919370814"
	},
	"44": {
		"name": "하복대점",
		"tel": "043-235-2292",
		"address": "충북 청주시 흥덕구 복대2동 2068번지",
		"lng": "127.44307149097837",
		"lat": "36.627888361089724"
	},
	"45": {
		"name": "남서울대점",
		"tel": "041-582-1992",
		"address": "충남 천안시 서북구 성환읍 성진로 65, 201(대학빌딩2층)  ",
		"lng": "127.14265292792413",
		"lat": "36.911984678781124"
	},
	"46": {
		"name": "범서점",
		"tel": "052-212-9282",
		"address": "울산 울주군 범서읍 천상리 11블록 1로트 신한다솜상가 102호",
		"lng": "129.23954689911486",
		"lat": ".5628484407232"
	},
	"47": {
		"name": "덕성여대점",
		"tel": "02-993-3400",
		"address": "서울 강북구 수유2동 279-69",
		"lng": "127.01458128589215",
		"lat": "37.64843867694141"
	},
	"48": {
		"name": "일도동문점",
		"tel": "064-702-9933",
		"address": "제주 건입동 1264-15",
		"lng": "126.53264140701054",
		"lat": "33.513492828339196"
	},
	"49": {
		"name": "구포점",
		"tel": "051-336-5152",
		"address": "부산 북구 구포3동 1213-18",
		"lng": "129.00494509975096",
		"lat": "35.201750417072574"
	},
	"50": {
		"name": "반포점",
		"tel": "02-534-0206",
		"address": "서울 서초구 반포본동 1166번지 반포상가 M동 9호",
		"lng": "126.99005234498564",
		"lat": "37.502200527113494"
	},
	"51": {
		"name": "신길영등포점",
		"tel": "02-831-6292",
		"address": "서울 영등포구 신길4동 235-4",
		"lng": "126.91222658670648",
		"lat": "37.50583362649313"
	},
	"52": {
		"name": "월계점",
		"tel": "02-998-9295",
		"address": "서울 노원구 월계4동 633-73",
		"lng": "127.0563258024037",
		"lat": "37.629800975413524"
	},
	"53": {
		"name": "반송용호점",
		"tel": "055-289-9285",
		"address": "경남 창원시 성산구 반지동 80-5(010-4282-6620)",
		"lng": "128.66259566608602",
		"lat": "35.23956102845067"
	},
	"54": {
		"name": "노형점",
		"tel": "064-712-2828",
		"address": "제주 노형동 2585-1 중흥S클래스상가 101호",
		"lng": "126.46798244949869",
		"lat": "33.48575518431384"
	},
	"55": {
		"name": "송현점",
		"tel": "053-555-9953",
		"address": "대구 달서구 송현동 577-11",
		"lng": "128.54718716740518",
		"lat": "35.83061445222221"
	},
	"56": {
		"name": "춘천굿모닝마트점",
		"tel": "033-257-7992",
		"address": "강원 춘천시 퇴계동 381-1",
		"lng": "127.72860544232346",
		"lat": "37.86035595727938"
	},
	"57": {
		"name": "월피부곡점",
		"tel": "031-406-4122",
		"address": "경기 안산시 상록구 부곡동 538-3 1층 105호",
		"lng": "126.8633853404177",
		"lat": "37.33217191418517"
	},
	"58": {
		"name": "하계본점",
		"tel": "02-978-1396",
		"address": "서울 노원구 하계동 287번지",
		"lng": "127.07025288026384",
		"lat": "37.641513520577504"
	},
	"59": {
		"name": "화명점",
		"tel": "051-342-8292",
		"address": "부산 북구 화명3동 2322번지 수정마을상가 110호",
		"lng": "129.00705911551293",
		"lat": "35.221796945114434"
	},
	"60": {
		"name": "아산1점",
		"tel": "041-546-9292",
		"address": "충남 아산시 용화동 42-33",
		"lng": "127.00443582469418",
		"lat": "36.77510210194918"
	},
	"61": {
		"name": "(신)방학점",
		"tel": "02-955-9288",
		"address": "서울 도봉구 도봉1동 612-43",
		"lng": "127.04122698826563",
		"lat": "37.670697432934965"
	},
	"62": {
		"name": "사동점",
		"tel": "031-418-0888",
		"address": "경기 안산시 상록구 사동 1345-2",
		"lng": "126.85014705821332",
		"lat": "37.28907203526566"
	},
	"63": {
		"name": "간동점",
		"tel": "033-441-0286",
		"address": "강원 화천군 간동면 오음리 612-1",
		"lng": "127.81713259794982",
		"lat": "38.05471453221733"
	},
	"64": {
		"name": "여천점",
		"tel": "061-683-1123",
		"address": "전남 여수시 학동 4-12번지 2층",
		"lng": "127.6592098752894",
		"lat": "34.76674941994567"
	},
	"65": {
		"name": "(신)첨단점",
		"tel": "062-972-3999",
		"address": "광주 광산구 월계동 772-14",
		"lng": "126.83538574051231",
		"lat": "35.21243705318038"
	},
	"66": {
		"name": "(신)목동점",
		"tel": "02-2062-8292",
		"address": "서울 양천구 목1동 405-74번지 영보빌딩 104호",
		"lng": "126.87311835807148",
		"lat": "37.52383978317433"
	},
	"67": {
		"name": "전농점",
		"tel": "02-2245-9292",
		"address": "서울 동대문구 전농동 687번지 신성미소지움@상가 101-101",
		"lng": "127.04852545642233",
		"lat": "37.578311053676536"
	},
	"68": {
		"name": "울산동부점",
		"tel": "052-252-8554",
		"address": "울산 동구 동부동 327-32",
		"lng": "129.4305098907964",
		"lat": "35.54340510516292"
	},
	"69": {
		"name": "김해상동점",
		"tel": "055-323-7311",
		"address": "경남 김해시 상동면 우계리 146-3",
		"lng": "128.91208015432966",
		"lat": "35.30170477518867"
	},
	"70": {
		"name": "안성1점",
		"tel": "031-674-9245",
		"address": "경기 안성시 대천동 66번지",
		"lng": "127.27018557168462",
		"lat": "37.00918846766727"
	},
	"71": {
		"name": "사창점",
		"tel": "033-441-3331",
		"address": "강원 화천군 사내면 사창1리 456-1",
		"lng": "127.52151932360333",
		"lat": "38.07145021817341"
	},
	"72": {
		"name": "가평점",
		"tel": "031-581-5556",
		"address": "경기 가평군.읍 읍내리 635-1",
		"lng": "127.50977012472607",
		"lat": "37.834085623009784"
	},
	"73": {
		"name": "인제현리점",
		"tel": "033-462-0082",
		"address": "강원 인제군 기린면 현리 652-5",
		"lng": "128.31639787626895",
		"lat": "37.955245939891576"
	},
	"74": {
		"name": "송추점",
		"tel": "031-826-6811",
		"address": "경기 양주시 장흥면 부곡리 540",
		"lng": "126.97676662665927",
		"lat": "37.719228931601"
	},
	"75": {
		"name": "여주점",
		"tel": "031-886-9282",
		"address": "경기 여주군 여주읍 상리 285-3",
		"lng": "127.6394682941416",
		"lat": "37.295274822176815"
	},
	"76": {
		"name": "도당여월점",
		"tel": "032-683-8712",
		"address": "경기 부천시 오정구 원종동 375-12번지",
		"lng": "126.8040795074128",
		"lat": "37.51889084059558"
	},
	"77": {
		"name": "태백점",
		"tel": "033-552-9925",
		"address": "강원 태백시 황지동 95-6",
		"lng": "128.9907659218389",
		"lat": "37.16116963885179"
	},
	"78": {
		"name": "가평현리점",
		"tel": "031-584-5551",
		"address": "경기도 가평군 하면 조종희망로8",
		"lng": "127.3494088450495",
		"lat": "37.81794527729926"
	},
	"79": {
		"name": "신가신창점",
		"tel": "062-956-9282",
		"address": "광주 광산구 신창동 1250-5번지",
		"lng": "126.83615299188236",
		"lat": "35.19570900406864"
	},
	"80": {
		"name": "석사점",
		"tel": "033-264-7992",
		"address": "강원 춘천시 석사동 495-14",
		"lng": "127.74486506070001",
		"lat": "37.8595154547042"
	},
	"81": {
		"name": "시기점",
		"tel": "063-534-9292",
		"address": "전북 정읍시 시기동 189-4",
		"lng": "126.85233666851997",
		"lat": "35.56624676600271"
	},
	"82": {
		"name": "포천점",
		"tel": "031-535-9216",
		"address": "경기 포천시 신읍동 116-35",
		"lng": "127.19427214265703",
		"lat": "37.89547148357748"
	},
	"83": {
		"name": "신구대점",
		"tel": "031-734-5421",
		"address": "경기 성남시 중원구 금광2동 2685번지 (010-5304-9444)",
		"lng": "127.16804487681682",
		"lat": "37.4487416958023"
	},
	"84": {
		"name": "다대1점",
		"tel": "051-262-5422",
		"address": "부산 사하구 다대2동 80-14 다해@ 4동 상가 2호",
		"lng": "128.98150735177555",
		"lat": "35.06689088621371"
	},
	"85": {
		"name": "용현동점",
		"tel": "032-882-5582",
		"address": "인천시 남구 용현5동 627-534 신창상가 103호",
		"lng": "126.64251904507094",
		"lat": "37.44508770800294"
	},
	"86": {
		"name": "(신)의성점",
		"tel": "054-834-4343",
		"address": "경북 의성군 의성읍 중리리 693-5",
		"lng": "128.6980504065639",
		"lat": "36.352158382066335"
	},
	"87": {
		"name": "숭실대점",
		"tel": "",
		"address": "서울 동작구 상도동 511번지 숭실대학교",
		"lng": "126.95722253852464",
		"lat": "37.4963546806635"
	},
	"88": {
		"name": "(신)시흥능곡점",
		"tel": "031-317-9251",
		"address": " 경기 시흥시 능곡동 신안인스빌(12블럭)상가 101호",
		"lng": "126.80969602831583",
		"lat": "37.36486632563547"
	},
	"89": {
		"name": "동백점",
		"tel": "031-8005-6005",
		"address": "경기 용인시 기흥구 동백동 598-4 유타운상가 108호",
		"lng": "127.1602220556912",
		"lat": "37.281983503782506"
	},
	"90": {
		"name": "봉오점",
		"tel": "033-442-9282",
		"address": "강원 화천군 상서면 봉오리 492-18",
		"lng": "127.59833599432681",
		"lat": "38.19177209414731"
	},
	"91": {
		"name": "청평점",
		"tel": "031-585-4478",
		"address": "경기 가평군 청평면 청평2리 319-59",
		"lng": "127.42264743248869",
		"lat": "37.73786241403615"
	},
	"92": {
		"name": "진주산업대점",
		"tel": "055-752-7566",
		"address": "경남 진주시 칠암동 448번지 2층",
		"lng": "128.09427836185904",
		"lat": "35.179241714344855"
	},
	"93": {
		"name": "경북영천점",
		"tel": "054-333-1197",
		"address": "경북 영천시 야사동 331-43(016-9662-3211)",
		"lng": "128.94012020962478",
		"lat": "35.97574337461145"
	},
	"94": {
		"name": " 협재점",
		"tel": "064-796-3527",
		"address": "제주 북제주군 한림읍 협재리 2508번지",
		"lng": "".,
		"lat": "".
	},
	"95": {
		"name": "(신)삼문점",
		"tel": "055-313-9393",
		"address": "경남 김해시 장유면 삼문리 40-4 석봉마을509동상가 101호",
		"lng": "128.8098334079897",
		"lat": "35.20209970493908"
	},
	"96": {
		"name": "(신)안심점",
		"tel": "053-962-3033",
		"address": "대구 동구 율하동 921-6",
		"lng": "128.6999221471655",
		"lat": "35.869963111011145"
	},
	"97": {
		"name": "삼천포점",
		"tel": "055-833-3883",
		"address": "경남 사천시 벌리동 261-6",
		"lng": "128.08706838602586",
		"lat": "34.938452562811804"
	},
	"98": {
		"name": "(신)양구남면점",
		"tel": "033-481-7617",
		"address": "강원 양구군 남면 용하리 430-4",
		"lng": "128.03309360572732",
		"lat": "38.10889110952146"
	},
	"99": {
		"name": "하대점",
		"tel": "055-754-0777",
		"address": "경남 진주시 하대동 312-33",
		"lng": "128.11693258183885",
		"lat": "35.19245703301421"
	},
	"100": {
		"name": "오산세마점",
		"tel": "031-374-9259",
		"address": "경기 오산시 세교동 세교택지개발지구 3-2번지 정원프라자 108호",
		"lng": "127.04423438675884",
		"lat": "37.189192992671295"
	},
	"101": {
		"name": "(신)상덕리점",
		"tel": "041-585-9292",
		"address": "충남 천안시 서북구 직산읍 상덕리 107번지 산호A상가",
		"lng": "127.12432056878062",
		"lat": "36.89487363053173"
	},
	"102": {
		"name": "남창점",
		"tel": "052-238-9255",
		"address": "울산 울주군 온양읍 운화리 5-1 동호그린파크",
		"lng": "129.27818277161842",
		"lat": "35.413796191695134"
	},
	"103": {
		"name": "맘스터치 무선점",
		"tel": "061-683-0566",
		"address": "전남 여수시 무선중앙로 7-1(화장동)",
		"lng": "127.6464498218094",
		"lat": "34.77604453995709"
	},
	"104": {
		"name": "한림교동점",
		"tel": "033-253-7992",
		"address": "강원 춘천시 교동 93-26",
		"lng": "127.73648106797542",
		"lat": "37.883028430658385"
	},
	"105": {
		"name": "동두천동점",
		"tel": "031-859-5070",
		"address": "경기 동두천시 동두천동 523-9",
		"lng": "127.05114620410276",
		"lat": "37.92612301293282"
	},
	"106": {
		"name": "정하점",
		"tel": "054-856-5577",
		"address": "경북 안동시 정하동 299-1",
		"lng": "128.73141141976356",
		"lat": "36.54789082023781"
	},
	"107": {
		"name": "장유팔판점",
		"tel": "055-312-9298",
		"address": "경남 김해시 장유면 관동리 449-3 대우프라자 110호",
		"lng": "128.79528519133268",
		"lat": "35.17803786938447"
	},
	"108": {
		"name": "강원대점",
		"tel": "033-250-7344",
		"address": "강원 춘천시 효자2동 192-1 강원대 천지관 2층",
		"lng": "127.74453949209888",
		"lat": "37.86917189444283"
	},
	"109": {
		"name": "(신)천곡점",
		"tel": "033-531-8999",
		"address": "강원 동해시 천곡동 1061번지 골든타워 106호",
		"lng": "129.11352712790094",
		"lat": "37.52190866805482"
	},
	"110": {
		"name": "(신)동홍점",
		"tel": "064-767-9282",
		"address": "제주 서귀포시 동홍동 170-2 상가101호",
		"lng": "126.57188262232977",
		"lat": "33.251496524327884"
	},
	"111": {
		"name": "(신)개금점",
		"tel": "051-896-5900",
		"address": "부산 진구 개금3동 1-12번지 동원화인훼미리상가 103호",
		"lng": "129.02854044026003",
		"lat": "35.16374266022334"
	},
	"112": {
		"name": "동서울대점",
		"tel": "031-751-0027",
		"address": "경기 성남시 수정구 복정동 678-7",
		"lng": "127.12658512432586",
		"lat": "37.46078044262453"
	},
	"113": {
		"name": "광양중마점",
		"tel": "061-791-3692",
		"address": "전남 광양시 중동 1450-3 1층",
		"lng": "127.68892152974826",
		"lat": "34.94730840001532"
	},
	"114": {
		"name": "주문진점",
		"tel": "033-661-4858",
		"address": "강원 강릉시 주문진읍 교항리 74-6 ",
		"lng": "128.82588030939195",
		"lat": "37.88077762568375"
	},
	"115": {
		"name": "(신)산정점",
		"tel": "061-278-3568",
		"address": "전남 목포시 산정동 1755-13",
		"lng": "126.37324965146588",
		"lat": "34.80715916201384"
	},
	"116": {
		"name": "(신)남악점",
		"tel": "061-287-7292",
		"address": "전남 목포시 옥암동 1148번지 부영사랑으로@ 1차상가108호",
		"lng": "126.43787900552026",
		"lat": "34.810031225459454"
	},
	"117": {
		"name": "신보광동점",
		"tel": "02-793-8892",
		"address": "서울 용산구 보광동 217-10",
		"lng": "126.99898183726143",
		"lat": "37.526221706943915"
	},
	"118": {
		"name": "무주리조트점",
		"tel": "063-322-9295",
		"address": "전북 무주군 설천면 삼공리 323-14",
		"lng": "127.77893588229557",
		"lat": "35.908335007181904"
	},
	"119": {
		"name": "(신)상남점",
		"tel": "055-262-2269",
		"address": "경남 창원시 성산구 상남동 52-6번지",
		"lng": "128.6903316258044",
		"lat": "35.21485109130131"
	},
	"120": {
		"name": "중앙대점",
		"tel": "02-822-3528",
		"address": "서울 동작구 흑석동 189-2",
		"lng": "126.96035570526675",
		"lat": "37.50779494266757"
	},
	"121": {
		"name": "(신)삼산점",
		"tel": "032-507-9982",
		"address": "인천 부평구 삼산동 77-3번지",
		"lng": "126.73948768449692",
		"lat": "37.519324656161764"
	},
	"122": {
		"name": "(신)효자점",
		"tel": "033-256-7992",
		"address": "강원 춘천시 효자3동 672-3",
		"lng": "127.72796800021742",
		"lat": "37.869949421203614"
	},
	"123": {
		"name": "보건대점",
		"tel": "055-741-8878",
		"address": "경남 진주시 상봉동 1091-17 2층",
		"lng": "128.07058620822505",
		"lat": "35.1978075787713"
	},
	"124": {
		"name": "대안점",
		"tel": "055-744-5559",
		"address": "경남 진주시 대안동 14-7 2층",
		"lng": "128.08327068831642",
		"lat": "35.19451497652397"
	},
	"125": {
		"name": "(신)분평수곡점",
		"tel": "043-291-5001",
		"address": "충북 청주시 흥덕구 수곡동 92-43",
		"lng": "127.4819784929967",
		"lat": "36.61857463011218"
	},
	"126": {
		"name": "풍암동점",
		"tel": "062-651-9282",
		"address": "광주 서구 풍암동 777번지 sk뷰상가 105호",
		"lng": "126.86871403804226",
		"lat": "35.11819212244089"
	},
	"127": {
		"name": "(신)삼안점",
		"tel": "055-322-3391",
		"address": "경남 김해시 지내동 67 동원1차상가 305호",
		"lng": "128.92375502076317",
		"lat": "35.23035212439192"
	},
	"128": {
		"name": "삼계점",
		"tel": "055-311-9555",
		"address": "경남 김해시 삼계동 1449-2",
		"lng": "128.87375491870216",
		"lat": "35.26432191816703"
	},
	"129": {
		"name": "우동점",
		"tel": "051-747-9296",
		"address": "부산 해운대구 우동 388-8",
		"lng": "129.15659101889972",
		"lat": "35.168234419590824"
	},
	"130": {
		"name": "(신)부곡하와이점",
		"tel": "055-536-7274",
		"address": "경남 창녕군 부곡면 거문리 195-4",
		"lng": "128.59227753777913",
		"lat": "35.438810501105856"
	},
	"131": {
		"name": "암사점",
		"tel": "02-441-5592",
		"address": "서울 강동구 암사동 478-2",
		"lng": "127.13526252688499",
		"lat": "37.55170380886956"
	},
	"132": {
		"name": "수택점",
		"tel": "031-551-7876",
		"address": "경기 구리시 수택동 444-13",
		"lng": "127.1410801071709",
		"lat": "37.592915691122165"
	},
	"133": {
		"name": "대방점",
		"tel": "055-266-3232",
		"address": "경남 창원시 대방동 364-4 대암빌딩 205호",
		"lng": "128.7075130084987",
		"lat": "35.208023834762464"
	},
	"134": {
		"name": "(신)구리점",
		"tel": "031-554-7333",
		"address": "경기 구리시 교문동 799-6",
		"lng": "127.13220738762814",
		"lat": "37.5903455233165"
	},
	"135": {
		"name": "(신)삼도용담점",
		"tel": "064-711-9292",
		"address": "제주 용담2동 603-23",
		"lng": "126.51074081279158",
		"lat": "33.512672571357"
	},
	"136": {
		"name": "외도하귀점",
		"tel": "064-745-5592",
		"address": "제주 외도 일동 635-5",
		"lng": "126.42941544465327",
		"lat": "33.485093154166904"
	},
	"137": {
		"name": "소사본점",
		"tel": "032-351-9282",
		"address": "경기 부천시 소사구 소사본동 229",
		"lng": "126.79646983675023",
		"lat": "37.47022007325596"
	},
	"138": {
		"name": "민락용현점",
		"tel": "031-853-8982",
		"address": "경기 의정부시 민락동 734-3",
		"lng": "127.08687737346322",
		"lat": "37.74306772136682"
	},
	"139": {
		"name": "탄현점",
		"tel": "031-917-9282",
		"address": "경기 고양시 일산서구 일산동 2023번지 이화프라자 109호",
		"lng": "126.77080699850531",
		"lat": "37.689424093912464"
	},
	"140": {
		"name": "(신)진주금산점",
		"tel": "055-743-1002",
		"address": "경남 진주시 금산면 중천리 234-10",
		"lng": "128.14568777035186",
		"lat": "35.2145187980506"
	},
	"141": {
		"name": "부경대점",
		"tel": "051-612-9220",
		"address": "부산 남구 대연3동 458-5번지",
		"lng": "129.10402112768696",
		"lat": "35.13590310827539"
	},
	"142": {
		"name": "금오신곡점",
		"tel": "031-853-8853",
		"address": "경기 의정부시 신곡동 760-2",
		"lng": "127.06938354677845",
		"lat": "37.7494906070958"
	},
	"143": {
		"name": "신중동1점",
		"tel": "032-325-9902",
		"address": "경기 부천시 원미구 중동 1079-1 뉴월드타운 101호",
		"lng": "126.77757907950195",
		"lat": "37.50336107985714"
	},
	"144": {
		"name": "서신동점",
		"tel": "063-275-6116",
		"address": "전북 전주시 완산구 중화산동 2가 701-9",
		"lng": "127.11827905854098",
		"lat": "35.82194322521187"
	},
	"145": {
		"name": "은천점",
		"tel": "02-875-9296",
		"address": "서울 관악구 봉천동 936-5",
		"lng": "126.94071158121265",
		"lat": "37.48576611771097"
	},
	"146": {
		"name": "함안점",
		"tel": "055-585-4488",
		"address": "경남 함안군 가야읍 말산리 519-23 2층",
		"lng": "128.40705727419208",
		"lat": "35.277532997768795"
	},
	"147": {
		"name": "(신)진주상대점",
		"tel": "055-757-0088",
		"address": "경남 진주시 상대2동 303-67",
		"lng": "128.11298107458802",
		"lat": "35.17997618890069"
	},
	"148": {
		"name": "포천일동점",
		"tel": "031-532-9996",
		"address": "경기 포천시 일동면 기산리 90-34",
		"lng": "127.31706336414143",
		"lat": "37.95685053060442"
	},
	"149": {
		"name": "광명KTX역점(공사중)",
		"tel": "02-898-6070",
		"address": "경기 광명시 일직동 267-2 KTX역사내",
		"lng": "126.88496199781457",
		"lat": "37.41653438937371"
	},
	"150": {
		"name": "거제중곡점",
		"tel": "055-632-9339",
		"address": "경남 거제시 고현동 988-32 동진빌딩 2층",
		"lng": "128.62981185030003",
		"lat": "34.89596809137364"
	},
	"151": {
		"name": "안성중앙대점",
		"tel": "031-677-9245",
		"address": "경기 안성시 대덕면 내리 678-7",
		"lng": "127.22641222001943",
		"lat": "37.00206419781863"
	},
	"152": {
		"name": "진주문산점",
		"tel": "055-761-9280",
		"address": "경남 진주시 문산읍 삼곡리 1182-70 2층",
		"lng": "128.16305325527784",
		"lat": "35.166159306221196"
	},
	"153": {
		"name": "(신)인제점(휴점중)",
		"tel": "033-462-8566",
		"address": "강원 인제군 인제읍 상동리 267-5",
		"lng": "128.17336941451322",
		"lat": "38.066879734623264"
	},
	"154": {
		"name": "(신)수완점",
		"tel": "062-959-3392",
		"address": "광주 광산구 흑석동 518번지 중흥s클레식상가 1호",
		"lng": "126.8129980817559",
		"lat": "35.18386051958496"
	},
	"155": {
		"name": "두정1점",
		"tel": "041-574-9797",
		"address": "충남 천안시 서북구 두정동 1994번지 116호",
		"lng": "127.1299798712282",
		"lat": "36.83420536499688"
	},
	"156": {
		"name": "수원경희대점",
		"tel": "031-205-5400",
		"address": "경기 용인시 기흥구 서천동 1 경희대 우정원 지하 1층",
		"lng": "127.0802663260038",
		"lat": "37.24555089790587"
	},
	"157": {
		"name": "(신)삼전점",
		"tel": "02-424-1229",
		"address": "서울 송파구 삼전동 58-4",
		"lng": "127.09152282076688",
		"lat": "37.50136179483674"
	},
	"158": {
		"name": "(신)아주대점",
		"tel": "031-219-2147",
		"address": "경기 수원시 영통구 원천동 산5 아주대학교 학생회관",
		"lng": "127.04370297313108",
		"lat": "37.28320115682025"
	},
	"159": {
		"name": "(신)옥포점",
		"tel": "055-687-9151",
		"address": "경남 거제시 옥포2동 협동아름@상가 105호",
		"lng": "128.69769178653488",
		"lat": "34.89755147473752"
	},
	"160": {
		"name": "진주교대점",
		"tel": "055-746-3457",
		"address": "경남 진주시 신안동 447-6 2층",
		"lng": "128.0678399332666",
		"lat": "35.18294592405756"
	},
	"161": {
		"name": "신림점",
		"tel": "02-889-9959",
		"address": "서울 관악구 신림동 1532",
		"lng": "126.93381492889488",
		"lat": "37.469810985801395"
	},
	"162": {
		"name": "방이점",
		"tel": "02-420-5985",
		"address": "서울 송파구 방이동 137-7",
		"lng": "127.11737622332082",
		"lat": "37.51044989554863"
	},
	"163": {
		"name": "포천이동점",
		"tel": "031-533-9259",
		"address": "경기 포천시 이동면 장암리 504-24",
		"lng": "127.36680989008504",
		"lat": "38.036257671225144"
	},
	"164": {
		"name": "문경점",
		"tel": "054-554-4242",
		"address": "경북 문경시 모전동 876-8",
		"lng": "128.18312784824684",
		"lat": "36.58525882152087"
	},
	"165": {
		"name": "상주점",
		"tel": "054-536-4292",
		"address": "경북 상주시 서문동 51-5",
		"lng": "128.1569104690358",
		"lat": "36.41872549152102"
	},
	"166": {
		"name": "매곡점",
		"tel": "052-296-8592",
		"address": "울산 북구 매곡동 330-2번지 월드메르디앙 202동 106호",
		"lng": "129.36079709917385",
		"lat": "35.642914734010944"
	},
	"167": {
		"name": "방어점",
		"tel": "052-201-8292",
		"address": "울산 동구 방어동 1007-7번지",
		"lng": "129.41025529101776",
		"lat": "35.48148114410994"
	},
	"168": {
		"name": "(신)경산진량점",
		"tel": "053-857-9665",
		"address": "경북 경산시 진량읍 선화리 1089 윤성코아 107-104",
		"lng": "128.79410532889713",
		"lat": "35.86518687562234"
	},
	"169": {
		"name": "영종자이점",
		"tel": "032-751-8892",
		"address": "인천 중구 운남동 운남지구 50-1블럭 영종자이상가 201호",
		"lng": "".,
		"lat": "".
	},
	"170": {
		"name": "(신)호서대점",
		"tel": "041-542-9111",
		"address": "충남 아산시 배방읍 세출리 227-3",
		"lng": "127.07610506253457",
		"lat": "36.74039557425163"
	},
	"171": {
		"name": "호원점",
		"tel": "031-826-8982",
		"address": "경기 의정부시 호원동 459-6 2층",
		"lng": "127.0484608202908",
		"lat": "37.708957373556544"
	},
	"172": {
		"name": "(신)하안점",
		"tel": "02-899-9233",
		"address": "경기 광명시 하안동 864 e편한세상나상가 105호",
		"lng": "126.86705513949376",
		"lat": "37.4675274374171"
	},
	"173": {
		"name": "(신)화천점",
		"tel": "033-442-7755",
		"address": "강원 화천군.읍 하리 43-72",
		"lng": "127.69951223251381",
		"lat": "38.099909397243444"
	},
	"174": {
		"name": "울산서부점",
		"tel": "052-251-5587",
		"address": "울산 동구 서부동 257-44",
		"lng": "129.4310305730927",
		"lat": "35.52954024123815"
	},
	"175": {
		"name": "강진점",
		"tel": "061-433-9979",
		"address": "전남 강진군 강진읍 영광로3길 6-1",
		"lng": "126.76923975329836",
		"lat": "34.63821084487126"
	},
	"176": {
		"name": "광주쌍촌점",
		"tel": "062-374-9200",
		"address": "광주광역시 서구 쌍촌동 1321번지",
		"lng": "126.85833576893522",
		"lat": "35.15904458054503"
	},
	"177": {
		"name": "대연점",
		"tel": "051-611-8812",
		"address": "부산 남구 수영로 239",
		"lng": "129.0927872702075",
		"lat": "35.1353659685151"
	},
	"178": {
		"name": "울산성남점",
		"tel": "052-248-3388",
		"address": "울산 중구 성남동 256-24",
		"lng": "129.3205141735953",
		"lat": "35.553167277140886"
	},
	"179": {
		"name": "국방부스낵바점",
		"tel": "02-748-0688",
		"address": "서울 용산구 용산동3가 국방부 본청스낵바",
		"lng": "126.9769651605189",
		"lat": "37.531866943434046"
	},
	"180": {
		"name": "(신)시화신도시점",
		"tel": "031-497-9288",
		"address": "경기 시흥시 정왕4동 1884-7 한양코아 1층",
		"lng": "126.72985624791882",
		"lat": "37.36293410477742"
	},
	"181": {
		"name": "(신)사천점",
		"tel": "055-852-2266",
		"address": "경남 사천시 사천읍 평화리 164-6번지",
		"lng": "128.08778119559875",
		"lat": "35.082023801748434"
	},
	"182": {
		"name": "생물자원관점",
		"tel": "032-569-5671",
		"address": "인천 서구 난지로 42번지 본관 편의시설식당",
		"lng": "126.67561333319658",
		"lat": "37.5451368498352"
	},
	"183": {
		"name": "대송로점",
		"tel": "052-234-8592",
		"address": "울산 동구 대송로 81번지",
		"lng": "129.42444194613043",
		"lat": "35.500915277497754"
	},
	"184": {
		"name": "표선마트점",
		"tel": "064-787-5404",
		"address": "제주 서귀포시 표선면 표선리 648-3",
		"lng": "126.83313442385543",
		"lat": "33.324493796262075"
	},
	"185": {
		"name": "순천향대점",
		"tel": "041-533-4666",
		"address": "충남 아산시 신창면 읍내리 457-2 2층(010-3208-8540)",
		"lng": "126.93280492573561",
		"lat": "36.77401989070912"
	},
	"186": {
		"name": "서울외대점",
		"tel": "010-7177-4461",
		"address": "서울 동대문구 이문로 107",
		"lng": "127.05870654297013",
		"lat": "37.5974290956851"
	},
	"187": {
		"name": "국제대점",
		"tel": "",
		"address": "경기 평택시 장안웃길 56",
		"lng": "127.08105697484017",
		"lat": "37.06575315713423"
	},
	"188": {
		"name": "고잔점",
		"tel": "031-475-9245",
		"address": "경기 안산시 단원구 고잔동 672-6번지 103호",
		"lng": "126.83795368489957",
		"lat": "37.32287721263321"
	},
	"189": {
		"name": "음성점",
		"tel": "043-872-8816",
		"address": "충북 음성군 음성읍 읍내리 682-10번지",
		"lng": "127.688584049089",
		"lat": "36.94119431882474"
	},
	"190": {
		"name": "원주연대점",
		"tel": "",
		"address": "강원 원주시 연세대길 1 연대학생회관 4층",
		"lng": "127.90122451283209",
		"lat": "37.28045239757226"
	},
	"191": {
		"name": "(신)미장점",
		"tel": "063-452-0994",
		"address": "전북 군산시 경장동 484-1",
		"lng": "126.72794638678702",
		"lat": "35.97346697820059"
	},
	"192": {
		"name": "기찬랜드점",
		"tel": "061-472-0892",
		"address": "전남 영암군 영암읍 회문리 25-17",
		"lng": "126.68575869266677",
		"lat": "34.79132719415103"
	},
	"193": {
		"name": "마석점",
		"tel": "031-511-0056",
		"address": "경기 남양주시 화도읍 마석우리 366-1",
		"lng": "127.3055984429638",
		"lat": "37.65708599305967"
	},
	"194": {
		"name": "인제상남점",
		"tel": "033-461-8880",
		"address": "강원 인제군 상남면 상남1리 115",
		"lng": "128.25993628769328",
		"lat": "37.871732029824464"
	},
	"195": {
		"name": "(신)거제아주점",
		"tel": "055-681-3693",
		"address": "경남 거제시 아주동 451-1",
		"lng": "128.6934087377822",
		"lat": "34.867307147564034"
	},
	"196": {
		"name": "외동점",
		"tel": "055-334-7878",
		"address": "경남 김해시 외동 1259-2",
		"lng": "128.8673384958473",
		"lat": "35.23407283389923"
	},
	"197": {
		"name": "두호점",
		"tel": "054-254-3492",
		"address": "경북 포항시 북구 두호동 1081-2",
		"lng": "129.38143526538514",
		"lat": "36.066534044392405"
	},
	"198": {
		"name": "충주건대점",
		"tel": "043-857-9800",
		"address": "충북 충주시 충원대로 266 (단월동,해오름학사1층)",
		"lng": "127.90749012124274",
		"lat": "36.94945118064717"
	},
	"199": {
		"name": "(신)경상대점",
		"tel": "055-753-7799",
		"address": "경남 진주시 가좌동 552-2번지 2층",
		"lng": "128.10472712084626",
		"lat": "35.15150572688119"
	},
	"200": {
		"name": "관동대점",
		"tel": "033-644-6401",
		"address": "강원 강릉시 내곡동 522번지 관동대 제2학생회관",
		"lng": "128.87418145166458",
		"lat": "37.73483206065931"
	},
	"201": {
		"name": "양주자이점",
		"tel": "031-841-1008",
		"address": "경기 양주시 삼숭동 685-1",
		"lng": "127.1059004352556",
		"lat": "37.79603608404242"
	},
	"202": {
		"name": "(신)화곡2점",
		"tel": "02-2695-5553",
		"address": "서울 강서구 화곡동 872-24번지",
		"lng": "126.85151406998378",
		"lat": "37.531617267309024"
	},
	"203": {
		"name": "마산점",
		"tel": "055-221-1190",
		"address": "경남 창원시 마산합포구 창포동 2가 2 경남맨션상가 2층",
		"lng": "128.562066987028",
		"lat": "35.18346280686936"
	},
	"204": {
		"name": "공지천점",
		"tel": "033-242-7992",
		"address": "강원 춘천시 삼천동 16-4",
		"lng": "127.70820881040888",
		"lat": "37.87209523291954"
	},
	"205": {
		"name": "노량진1점",
		"tel": "02-815-3339",
		"address": "서울 동작구 노량진동 211-44",
		"lng": "126.9453557042264",
		"lat": "37.51158038314877"
	},
	"206": {
		"name": "부산송도점",
		"tel": "051-257-8585",
		"address": "부산 서구 암남공원로 39 풍림아이원 109호",
		"lng": "129.02141676060288",
		"lat": "35.07997688697886"
	},
	"207": {
		"name": "신의정부가능점(신시가지점)",
		"tel": "031-872-8982",
		"address": "의정부시 의정부2동 484-7",
		"lng": "127.03883247292174",
		"lat": "37.73909664189758"
	},
	"208": {
		"name": "광주운암점",
		"tel": "062-515-8292",
		"address": "광주 북구 황계로 55번길 8",
		"lng": "126.87584594541995",
		"lat": "35.178006721786595"
	},
	"209": {
		"name": "인제대점",
		"tel": "055-335-9982",
		"address": "경남 김해시 어방동 463-3",
		"lng": "128.90409861788814",
		"lat": "35.24590739611702"
	},
	"210": {
		"name": "삼화점",
		"tel": "064-755-9292",
		"address": "제주 화북1동 1005-4",
		"lng": "126.57671738721649",
		"lat": "33.516442602276406"
	},
	"211": {
		"name": "우두점",
		"tel": "033-253-9288",
		"address": "강원 춘천시 우두동 1052-14",
		"lng": "127.72804341010283",
		"lat": "37.89931564120118"
	},
	"212": {
		"name": "(신)오포점",
		"tel": "031-762-1303",
		"address": "경기 광주시 오포읍 양벌리 359 우림상가 106호",
		"lng": "127.25953170088125",
		"lat": "37.377057081569184"
	},
	"213": {
		"name": "대구보건대점",
		"tel": "053-295-3038",
		"address": "대구 북구 태전동 976-4",
		"lng": "128.54435462247042",
		"lat": "35.92644659834417"
	},
	"214": {
		"name": "(신)도산소촌점",
		"tel": "062-942-1192",
		"address": "광주 광산구 남동길 30번길 45-16",
		"lng": "126.79104852311913",
		"lat": "35.12911941381172"
	},
	"215": {
		"name": "진영신도시점",
		"tel": "055-345-7792",
		"address": "경남 김해시 진영읍 진영리 1612-5 시티프라자 106호",
		"lng": "128.7298286472002",
		"lat": "35.30784188606238"
	},
	"216": {
		"name": "(신)운남하남점",
		"tel": "062-959-1289",
		"address": "광주 광산구 월곡동 682-7 수산빌딩 106호",
		"lng": "126.81058429239293",
		"lat": "35.17561117293137"
	},
	"217": {
		"name": "보령점",
		"tel": "041-933-9901",
		"address": "충남 보령시 동대동 주공로 17",
		"lng": "126.60293168596645",
		"lat": "36.344659262486395"
	},
	"218": {
		"name": "노은동점",
		"tel": "042-825-9477",
		"address": "대전 유성구 노은로 144 노은타운 116호",
		"lng": "127.31850552336687",
		"lat": "36.37254614300892"
	},
	"219": {
		"name": "국민대점",
		"tel": "02-910-4984",
		"address": "서울 성북구 정릉동 861-1 공학관 1층",
		"lng": "126.9977031411065",
		"lat": "37.61090446702944"
	},
	"220": {
		"name": "도계강원대점",
		"tel": "033-541-7771",
		"address": "강원 삼척시 도계읍 황조리 209 강원대도계캠퍼스",
		"lng": "129.09699778168385",
		"lat": "37.225768343348314"
	},
	"221": {
		"name": "염창점",
		"tel": "02-3665-6427",
		"address": "서울 강서구 염창동 264-18 송촌스페이스향 1층",
		"lng": "126.87282139825015",
		"lat": "37.549492734088886"
	},
	"222": {
		"name": "상모점",
		"tel": "054-462-9555",
		"address": "경북 구미시 상모동 29-4",
		"lng": "128.35496148936772",
		"lat": "36.08901319739296"
	},
	"223": {
		"name": "(신)삼호점",
		"tel": "061-463-8282",
		"address": "전남 영암군 삼호읍 용당리 2175-2",
		"lng": "126.37094481354453",
		"lat": "34.74800478507606"
	},
	"224": {
		"name": "(신)홍천점",
		"tel": "033-432-9294",
		"address": "강원도 홍천군 홍천읍 희망리 329-8",
		"lng": "127.88060530031605",
		"lat": "37.689389668812154"
	},
	"225": {
		"name": "한기대점",
		"tel": "041-558-5385",
		"address": "충남 천안시 동남구 병천면 가전리 193",
		"lng": "127.28336244945108",
		"lat": "36.76744767552314"
	},
	"226": {
		"name": "진도점",
		"tel": "061-544-4292",
		"address": "전남 진도군 진도읍 쌍정리 15-8 101동 201호",
		"lng": "126.2644148675115",
		"lat": "34.483628959819086"
	},
	"227": {
		"name": "장흥점 ",
		"tel": "061-864-0042",
		"address": "전남 장흥군 장흥읍 건산리 398-4",
		"lng": "126.91043504462814",
		"lat": "34.67923842459729"
	},
	"228": {
		"name": "거창점",
		"tel": "055-945-7181",
		"address": "경남 거창군 거창읍 중앙리 273번지 2층",
		"lng": "127.90599341767654",
		"lat": "35.692843157149156"
	},
	"229": {
		"name": "천도리점",
		"tel": "033-462-1237",
		"address": "강원 인제군 서화면 천도리 475-2",
		"lng": "128.20972641729523",
		"lat": "38.229725086497716"
	},
	"230": {
		"name": "기장점",
		"tel": "051-721-7892",
		"address": "부산 기장군 동부리 274-24번지 2층",
		"lng": "129.21566942962258",
		"lat": "35.24524484940473"
	},
	"231": {
		"name": "양구방산점",
		"tel": "033-721-7892",
		"address": "강원 양구군 방산면 송현리 481",
		"lng": "127.95576457613788",
		"lat": "38.22372600810548"
	},
	"232": {
		"name": "원지점",
		"tel": "055-974-3357",
		"address": "경남 산청군 산청읍 신안면 하정리 630-23",
		"lng": "127.97602336340255",
		"lat": "35.30147416496703"
	},
	"233": {
		"name": "산양1호점",
		"tel": "033-442-6333",
		"address": "강원 화천군 상서면 산양리 738-6",
		"lng": "127.6624420877885",
		"lat": "38.20737356269502"
	},
	"234": {
		"name": "백석대점",
		"tel": "041-568-9288",
		"address": "충남 천안시 동남구 안서동 384번지 성지빌딩 201호",
		"lng": "127.18140106980388",
		"lat": "36.84089992874857"
	},
	"235": {
		"name": "학익동점",
		"tel": "032-861-7272",
		"address": "인천 남구 학익1동 697-6",
		"lng": "126.66071535350184",
		"lat": "37.4395767011308"
	},
	"236": {
		"name": "(신)봉선점",
		"tel": "062-651-9285",
		"address": "광주 남구 봉선동 1004-7 ",
		"lng": "126.90780965543357",
		"lat": "35.12763480355017"
	},
	"237": {
		"name": "세종부강점",
		"tel": "043-275-0199",
		"address": "세종특별자치시 부강면 부강리 438-3",
		"lng": "127.36711833543366",
		"lat": "36.52884086371627"
	},
	"238": {
		"name": "구미송정점",
		"tel": "054-444-2289",
		"address": "경북 구미 송정동 3번지",
		"lng": "128.3397332676472",
		"lat": "36.12327283143363"
	},
	"239": {
		"name": "광주조선대점",
		"tel": "062-226-1289",
		"address": "광주 동구 지산동 500번지 2층",
		"lng": "126.93111487909536",
		"lat": "35.14609217380876"
	},
	"240": {
		"name": "율하점",
		"tel": "055-327-9282",
		"address": "경남 김해시 장유면 율하리 1299-2 ",
		"lng": "128.80784042461542",
		"lat": "35.17280792567291"
	},
	"241": {
		"name": "명동지하상가점",
		"tel": "033-242-9288",
		"address": "강원 춘천시 중앙로1가 91 명동지하상가 D열 11호",
		"lng": "127.7284806637937",
		"lat": "37.88046191149965"
	},
	"242": {
		"name": "(신)고성점",
		"tel": "055-672-2267",
		"address": "경남 고성군 고성읍 동외리 289-44",
		"lng": "128.32661279144406",
		"lat": "34.97542014177781"
	},
	"243": {
		"name": "신세종첫마을점",
		"tel": "044-863-9288",
		"address": "세종시 누리로 54 (한솔동 첫마을@ C상가 B 112호)",
		"lng": "127.2519654052975",
		"lat": "36.476151787236404"
	},
	"244": {
		"name": "예산점",
		"tel": "041-334-0092",
		"address": "충남 예산군 예산읍 예산로 212번길 16 1층",
		"lng": "126.8480928960514",
		"lat": "36.6797817407909"
	},
	"245": {
		"name": "완도점",
		"tel": "061-554-0050",
		"address": "전남 완도군 완도읍 가용리 1070-1 101호",
		"lng": "126.74365559372575",
		"lat": "34.319923643008"
	},
	"246": {
		"name": "(신)롯데시네마점",
		"tel": "054-232-4279",
		"address": "경북 포항시 북구 대흥동 563-3 롯데시네마 1층",
		"lng": "129.36296252194094",
		"lat": "36.03662661192552"
	},
	"247": {
		"name": "거두점",
		"tel": "033-256-0116",
		"address": "강원 춘천시 동내면 거두택지길 16-1",
		"lng": "127.75328668678239",
		"lat": "37.853169767195126"
	},
	"248": {
		"name": "(신)충북대점",
		"tel": "043-265-7770",
		"address": "충북 청주시 흥덕구 사창동 514 실내아이스링크 1층",
		"lng": "127.46023830743245",
		"lat": "36.6314133882156"
	},
	"249": {
		"name": "효가점",
		"tel": "033-522-3100",
		"address": "강원 동해시 동회동 175-6",
		"lng": "129.10844165033146",
		"lat": "37.49167352793688"
	},
	"250": {
		"name": "홍성터미널점",
		"tel": "041-631-9288",
		"address": "충남 홍성군 홍성읍 조양로 247번길 9",
		"lng": "126.6762792992464",
		"lat": "36.60107250487124"
	},
	"251": {
		"name": "속초교동점",
		"tel": "033-635-8959",
		"address": "강원 속초시 교동 번영로 39",
		"lng": "128.58244835722948",
		"lat": "38.20411123148504"
	},
	"252": {
		"name": "효성점",
		"tel": "032-554-8885",
		"address": "인천 계양구 효성동 33-22번지 102호",
		"lng": "126.70948214271048",
		"lat": "37.535011332557644"
	},
	"253": {
		"name": "(신)만천점",
		"tel": "033-241-7992",
		"address": "강원 춘천시 동면 장학리 804-1",
		"lng": "127.75667917730085",
		"lat": "37.89424841205754"
	},
	"254": {
		"name": "주월동점",
		"tel": "062-651-9233",
		"address": "광주 남구 주월동 505-15",
		"lng": "126.893047176461",
		"lat": "35.130525066940415"
	},
	"255": {
		"name": "부민점",
		"tel": "051-242-8899",
		"address": "부산 서구 부민동 1가 16-1 한웅캠퍼스타워 102",
		"lng": "129.02028997249903",
		"lat": "35.104158062231726"
	},
	"256": {
		"name": "금마동점",
		"tel": "063-833-4440",
		"address": "전북 익산시 금마면 미륵사지로 1길 42",
		"lng": "127.05385929586127",
		"lat": "35.98944480662777"
	},
	"257": {
		"name": "양구동면2점",
		"tel": "033-482-9282",
		"address": "강원 양구군 동면 금강산로 1548-4",
		"lng": "128.03599372684704",
		"lat": "38.19079440414808"
	},
	"258": {
		"name": "창원대점",
		"tel": "055-286-3231",
		"address": "경남 창원시 의창구 사림동 55-13",
		"lng": "128.68910896191252",
		"lat": "35.2425391350757"
	},
	"259": {
		"name": "오치매곡점",
		"tel": "062-262-8292",
		"address": "광주 북구 오치동 776-4",
		"lng": "126.9024555891214",
		"lat": "35.18650742417186"
	},
	"260": {
		"name": "안중점",
		"tel": "031-681-8585",
		"address": "경기 평택시 안중읍 안현로 서6길 66(3호)",
		"lng": "126.92198986256894",
		"lat": "36.98474825875224"
	},
	"261": {
		"name": "광영점",
		"tel": "061-794-4292",
		"address": "전남 광양시 광영동 378-6",
		"lng": "127.7144253143936",
		"lat": "34.96313688744827"
	},
	"262": {
		"name": "백석점",
		"tel": "031-994-2827",
		"address": "경기 고양시 일산동구 백석동 1323번지 동문타워1차 109호",
		"lng": "126.7865478300829",
		"lat": "37.64046919394525"
	},
	"263": {
		"name": "후평동점",
		"tel": "033-241-1212",
		"address": "강원 춘천시 후평동 822-1 ",
		"lng": "127.75438514081921",
		"lat": "37.87621575268293"
	},
	"264": {
		"name": "삼정점",
		"tel": "055-311-9942",
		"address": "경남 김해시 삼정동 642-12",
		"lng": "128.90008303485246",
		"lat": "35.232752009680375"
	},
	"265": {
		"name": "성균관대점",
		"tel": "",
		"address": "서울 종로구 명륜3가 53 경영관 지하2층",
		"lng": "126.99573842575793",
		"lat": "37.58579919699467"
	},
	"266": {
		"name": "남해점",
		"tel": "055-864-2040",
		"address": "경남 남해군 남해읍 북변리 160-7",
		"lng": "127.89318557021436",
		"lat": "34.838413317305495"
	},
	"267": {
		"name": "공주대점",
		"tel": "041-858-9288",
		"address": "충남 공주시 신관동 31-17",
		"lng": "127.14020313592171",
		"lat": "36.473722057150816"
	},
	"268": {
		"name": "동서대점",
		"tel": "",
		"address": "부산 사상구 주례2동 산 69-1 동서대학교 학생프라자",
		"lng": "129.0105134142936",
		"lat": "35.141665386048444"
	},
	"269": {
		"name": "반구홈플러스점",
		"tel": "052-291-1228",
		"address": "울산 중구 반구2동 62-8",
		"lng": "129.33630890974268",
		"lat": "35.56353060764197"
	},
	"270": {
		"name": "송천점",
		"tel": "063-253-9295",
		"address": "전북 전주시 덕진구 송천동 1가 834-1",
		"lng": "127.11479752137662",
		"lat": "35.86332871162849"
	},
	"271": {
		"name": "서산호수공원점",
		"tel": "041-667-9288",
		"address": "충남 서산시 예천동 1267-3",
		"lng": "126.44808560428449",
		"lat": "36.77408507696917"
	},
	"272": {
		"name": "수암홈플러스점",
		"tel": "052-267-9888",
		"address": "울산 남구 수암로 105번지 13-4",
		"lng": "129.3193547591907",
		"lat": "35.528997901656126"
	},
	"273": {
		"name": "거제장평점",
		"tel": "055-632-9020",
		"address": "경남 거제시 장평동 138-4 유림빌딩 3층",
		"lng": "128.60880448209517",
		"lat": "34.886759383377395"
	},
	"274": {
		"name": "명지대점",
		"tel": "02-3152-0111",
		"address": "서울 서대문구 거북골로 34",
		"lng": "126.92312077705334",
		"lat": "37.58022772396061"
	},
	"275": {
		"name": "구산점",
		"tel": "055-331-3210",
		"address": "경남 김해시 구산동 1083-5",
		"lng": "128.86714423719388",
		"lat": "35.25242758382381"
	},
	"276": {
		"name": "양구점",
		"tel": "033-481-6660",
		"address": "강원 양구군 양구읍 상리 332-1",
		"lng": "127.98957587398858",
		"lat": "38.106901805591654"
	},
	"277": {
		"name": "신해운대신도시점",
		"tel": "051-731-2922",
		"address": "부산 해운대구 좌동 1271번지 신성상가 113호",
		"lng": "129.16830162549624",
		"lat": "35.17282294474127"
	},
	"278": {
		"name": "휘경여고점",
		"tel": "02-2241-7080",
		"address": "서울 동대문구 전농동 1-205",
		"lng": "127.06868035359761",
		"lat": "37.58253932226773"
	},
	"279": {
		"name": "부천상동점",
		"tel": "032-328-3555",
		"address": "경기 부천시 원미구 상동 557-3 늘푸른상가 2층",
		"lng": "126.7533404324454",
		"lat": "37.50068562821322"
	},
	"280": {
		"name": "선문대점",
		"tel": "041-543-9293",
		"address": "충남 아산시 탕정면 탕정면로 114-1",
		"lng": "127.0682859828662",
		"lat": "36.80167267025777"
	},
	"281": {
		"name": "신논현한화점",
		"tel": "032-441-9111",
		"address": "경기 시흥시 월곶동 991-16번지 102호",
		"lng": "126.74012623501754",
		"lat": "37.3937324304533"
	},
	"282": {
		"name": "구미인동점",
		"tel": "054-475-3038",
		"address": "경북 구미시 황상동 280-9번지 2층 201호",
		"lng": "128.4223863995469",
		"lat": "36.10834864647232"
	},
	"283": {
		"name": "거제상동점",
		"tel": "055-632-3713",
		"address": "경남 거제시 상동 1길 18-5",
		"lng": "128.64008052397978",
		"lat": "34.86510376016196"
	},
	"284": {
		"name": "휘경점",
		"tel": "02-925-6868",
		"address": "서울 동대문구 휘경2동 269-26",
		"lng": "127.06134984407764",
		"lat": "37.58958191568737"
	},
	"285": {
		"name": "진해롯데시네마점",
		"tel": "055-744-7100",
		"address": "경남 창원시 진해구 석동 543-3 롯데시네마 201호",
		"lng": "128.69741461960186",
		"lat": "35.158800521021206"
	},
	"286": {
		"name": "동아대점",
		"tel": "051-904-2991",
		"address": "부산 사하구 하단동 낙동대로 516번길 47 2층",
		"lng": "128.96573424668924",
		"lat": "35.1130145379188"
	},
	"287": {
		"name": "부개점",
		"tel": "032-502-1900",
		"address": "인천 부평구 부개동 23-18",
		"lng": "126.73592391317902",
		"lat": "37.50085701123249"
	},
	"288": {
		"name": "울산대점",
		"tel": "052-224-9282",
		"address": "울산 남구 무거동 850-4",
		"lng": "129.25908483574392",
		"lat": "35.546714985332045"
	},
	"289": {
		"name": "봉명점",
		"tel": "1644-4239",
		"address": "충북 청주시 흥덕구 봉명동 1609",
		"lng": "127.45528758701195",
		"lat": "36.643586840356726"
	},
	"290": {
		"name": "쌍용1점",
		"tel": "041-576-9985",
		"address": "충남 천안시 서북구 봉서5길 4",
		"lng": "127.13214504560038",
		"lat": "36.807760837712394"
	},
	"291": {
		"name": "휘닉스파크점",
		"tel": "",
		"address": "강원 평창군 봉평면 무이리 1095번지",
		"lng": "128.31105446293174",
		"lat": "37.58915981966532"
	},
	"292": {
		"name": "강릉터미널점",
		"tel": "033-642-9526",
		"address": "강원 강릉시 홍제동 992-1",
		"lng": "128.87874483892344",
		"lat": "37.75435099548069"
	},
	"293": {
		"name": "노량진2점",
		"tel": "02-812-6842",
		"address": "서울 동작구 노량진1동 85-6",
		"lng": "126.94321046573081",
		"lat": "37.51254164369554"
	},
	"294": {
		"name": "근화동점",
		"tel": "033-256-9949",
		"address": "강원 춘천시 근화동 283-12 1층",
		"lng": "127.71674020237623",
		"lat": "37.87285444213245"
	},
	"295": {
		"name": "부산대점",
		"tel": "051-515-0516",
		"address": "부산 금정구 장전동 부산대학로 63번길 34",
		"lng": "129.08393424900254",
		"lat": "35.2301722308162"
	},
	"296": {
		"name": "창신대점",
		"tel": "055-263-3106",
		"address": "경남 창원시 마산회원구 구암동 86-63",
		"lng": "128.59942516377663",
		"lat": "35.248819176454234"
	},
	"297": {
		"name": "진해용원점",
		"tel": "055-544-3236",
		"address": "경남 창원시 진해구 용원동 1212-15",
		"lng": "128.81175869573374",
		"lat": "35.10162229340973"
	},
	"298": {
		"name": "부원점",
		"tel": "055-333-5677",
		"address": "경남 김해시 부원동 18-4",
		"lng": "128.88731662512373",
		"lat": "35.23145944634114"
	},
	"299": {
		"name": "신광안1호점",
		"tel": "051-757-9282",
		"address": "부산 수영구 광안동 호암로 18-2",
		"lng": "129.11107745038308",
		"lat": "35.15664385093075"
	},
	"300": {
		"name": "순천금당점",
		"tel": "061-726-4959",
		"address": "전남 순천시 연향동 1483-4",
		"lng": "127.52460752012837",
		"lat": "34.946229057066546"
	},
	"301": {
		"name": "(신)삼척점",
		"tel": "033-574-9900",
		"address": "강원 삼척시 남양동 17-11",
		"lng": "129.16348644954346",
		"lat": "37.44415836354855"
	},
	"302": {
		"name": "서산터미널점",
		"tel": "041-666-9288",
		"address": "충남 서산시 동문동 317-3",
		"lng": "126.45963445762347",
		"lat": "36.782655335802936"
	},
	"303": {
		"name": "덕정점",
		"tel": "031-858-9281",
		"address": "경기 양주시 덕정동 240-11 203호",
		"lng": "127.06471498721386",
		"lat": "37.83485393509348"
	},
	"304": {
		"name": "부천대점",
		"tel": "032-611-8636",
		"address": "경기 부천시 원미구 부천로39번길44 2층",
		"lng": "126.78121022233474",
		"lat": "37.48835351303713"
	},
	"305": {
		"name": "논현역점",
		"tel": "032-422-9280",
		"address": "인천 남동구 앵고개로 847번길 51",
		"lng": "126.7247877804085",
		"lat": "37.39815957402381"
	},
	"306": {
		"name": "성안점",
		"tel": "052-246-4243",
		"address": "울산 중구 성안동 400-3",
		"lng": "129.31761073308073",
		"lat": "35.576546152781745"
	},
	"307": {
		"name": "정자점",
		"tel": "052-295-9933",
		"address": "울산 북구 산하동 963",
		"lng": "129.44252962937335",
		"lat": "35.625689221431756"
	},
	"308": {
		"name": "신나사렛대점",
		"tel": "041-578-9902",
		"address": "충남 천안시 서북구 쌍용동 1544",
		"lng": "127.11786701853919",
		"lat": "36.79822406032387"
	},
	"309": {
		"name": "칠전점",
		"tel": "033-261-9928",
		"address": "강원 춘천시 칠전서길 34",
		"lng": "127.7128705131771",
		"lat": "37.84208761704275"
	},
	"310": {
		"name": "작전점",
		"tel": "032-345-5571",
		"address": "인천 계양구 작전동 175-2",
		"lng": "126.73019575784889",
		"lat": "37.52759659924791"
	},
	"311": {
		"name": "창원대산점",
		"tel": "055-291-9100",
		"address": "경남 창원시 의창구 대산면 제동리 273-58",
		"lng": "128.7086419754646",
		"lat": "35.3344330250229"
	},
	"312": {
		"name": "영진전문대점",
		"tel": "053-583-2262",
		"address": "대구 북구 복현동 336-22",
		"lng": "128.62408681385077",
		"lat": "35.89484581994337"
	},
	"313": {
		"name": "포항양덕점",
		"tel": "054-255-3038",
		"address": "경북 포항시 북구 양덕동 1755-1",
		"lng": "129.40262660375257",
		"lat": "36.082141116387554"
	},
	"314": {
		"name": "숙명여대점",
		"tel": "02-719-0812",
		"address": "서울 용산구 청파동 2가 64-15",
		"lng": "126.96602561575426",
		"lat": "37.544907182122664"
	},
	"315": {
		"name": "(신)내서삼계점",
		"tel": "055-232-8295",
		"address": "경남 창원시 마산회원구 내서읍 삼계리 27 오아시스빌딩302호",
		"lng": "128.5040737111243",
		"lat": "35.232460640928906"
	},
	"316": {
		"name": "삼송동산고점",
		"tel": "02-381-9252",
		"address": "경기도 고양시 덕양구 동세로 22-2 아크리온 빌딩  102호",
		"lng": "126.88703511869149",
		"lat": "37.645177992907485"
	},
	"317": {
		"name": "(신)평릉부곡점",
		"tel": "033-534-2117",
		"address": "강원 동해시 평릉동 449번지 하나리움@상가 102호",
		"lng": "129.1116041182483",
		"lat": "37.53296939411403"
	},
	"318": {
		"name": "남목동점",
		"tel": "052-252-7999",
		"address": "울산 동구 동부동 313",
		"lng": "129.4287146768791",
		"lat": "35.54207532212938"
	},
	"319": {
		"name": "천안공주대점",
		"tel": "041-554-3392",
		"address": "충남 천안시 서북구 천안대로 1220(신당동)",
		"lng": "127.1556479400736",
		"lat": "36.85030792525204"
	},
	"320": {
		"name": "북면점",
		"tel": "031-581-6966",
		"address": "경기 가평군 북면 목동리 886-18",
		"lng": "127.55025130809352",
		"lat": "37.886658925260065"
	},
	"321": {
		"name": "별내1점",
		"tel": "031-571-9295",
		"address": " 경기 남양주시 별내5로 23번길 4-9",
		"lng": "127.11510459231562",
		"lat": "37.651331440361496"
	},
	"322": {
		"name": "(신)서울공항점",
		"tel": "031-721-3554",
		"address": "경기 성남시 수정구 고등동 1 ",
		"lng": "127.10693527399532",
		"lat": "37.43810513060424"
	},
	"323": {
		"name": "태화점",
		"tel": "052-244-9001",
		"address": "울산 중구 태화동 474-1",
		"lng": "129.2967395906751",
		"lat": "35.5516980443268"
	},
	"324": {
		"name": "왜관점",
		"tel": "054-972-3038",
		"address": "경북 칠곡군 왜관읍 왜관리 230-10",
		"lng": "128.3993246840392",
		"lat": "35.992333185739376"
	},
	"325": {
		"name": "창원도계점",
		"tel": "055-237-1425",
		"address": "경남 창원시 의창구 도계동 357-4 중앙상가연립 104호",
		"lng": "128.638278927309",
		"lat": "35.25896977592674"
	},
	"326": {
		"name": "부평본점",
		"tel": "032-508-9279",
		"address": "인천시 부평구 부평동 505-2",
		"lng": "126.7302885874999",
		"lat": "37.49048633530763"
	},
	"327": {
		"name": "수원역점",
		"tel": "070-7796-3830",
		"address": "경기 수원시 팔달구 매산로 1가 47-4",
		"lng": "127.0031567519161",
		"lat": "37.26759955777552"
	},
	"328": {
		"name": "아산득산점",
		"tel": "041-531-9298",
		"address": "충남 아산시 득산동 391-2",
		"lng": "126.96022873923077",
		"lat": "36.78606031253332"
	},
	"329": {
		"name": "순천연향점",
		"tel": "061-726-3600",
		"address": "전남 순천시 조례동 1719-14",
		"lng": "127.51624028874605",
		"lat": "34.95262142354483"
	},
	"330": {
		"name": "양산범어점",
		"tel": "055-382-2200",
		"address": "경남 양산시 물금읍 범어리 2711-4",
		"lng": "129.01430545300792",
		"lat": "35.32874462467917"
	},
	"331": {
		"name": "하동점",
		"tel": "055-884-2999",
		"address": "경남 하동읍 읍내리 233-15",
		"lng": "127.74927102773701",
		"lat": "35.0684971580361"
	},
	"332": {
		"name": "군산대점",
		"tel": "063-465-9280",
		"address": "전북 군산시 미룡동 868-2",
		"lng": "126.68558444193013",
		"lat": "35.946629205275634"
	},
	"333": {
		"name": "남천점",
		"tel": "051-900-7786",
		"address": "부산 수영구 남천동 31-29",
		"lng": "129.1117330789992",
		"lat": "35.147029735606644"
	},
	"334": {
		"name": "화봉동점",
		"tel": "052-288-0020",
		"address": "울산 북구 연암동 371-2",
		"lng": "129.36783636792495",
		"lat": "35.5853296437843"
	},
	"335": {
		"name": "경남데파트점",
		"tel": "055-242-7288",
		"address": "경남 창원시 마산합포구 중앙동 3가 2-3 경남데파트 106호",
		"lng": "128.56714120269768",
		"lat": "35.20097504087347"
	},
	"336": {
		"name": "충주교통대점",
		"tel": "043-847-0095",
		"address": "충북 충주시 대소원면 검단리 78-8",
		"lng": "127.87235844516385",
		"lat": "36.96509735339204"
	},
	"337": {
		"name": "(신)목동2점",
		"tel": "02-2649-1530",
		"address": "서울 양천구 목4동 782-1",
		"lng": "126.86372579736795",
		"lat": "37.53551710328138"
	},
	"338": {
		"name": "충남대점",
		"tel": "042-825-9259",
		"address": "대전 유성구 궁동 416-1 ",
		"lng": "127.34767249891844",
		"lat": "36.362004001965175"
	},
	"339": {
		"name": "원주단구점",
		"tel": "033-765-8980",
		"address": "강원 원주시 단구동 1654-2 ",
		"lng": "127.95625078873806",
		"lat": "37.321877634379156"
	},
	"340": {
		"name": "당진터미널점",
		"tel": "041-356-9288",
		"address": "충남 당진시 수청동 991",
		"lng": "126.64523071675245",
		"lat": "36.90089692111606"
	},
	"341": {
		"name": "(신)목포대점",
		"tel": "061-454-3939",
		"address": "전남 무안군 청계면 도림리 315-14 2층",
		"lng": "126.43344601187694",
		"lat": "34.91021626303294"
	},
	"342": {
		"name": "유한대점",
		"tel": "032-341-6561",
		"address": "경기 부천시 소사구 괴안동 185-34 학생회관 1층",
		"lng": "126.8215566379529",
		"lat": "37.48735815235658"
	},
	"343": {
		"name": "산기대점",
		"tel": "031-319-9289",
		"address": "경기 시흥시 산기대학로 237 스마트허브산학융합 1층",
		"lng": "126.73359410016981",
		"lat": "37.340175452176716"
	},
	"344": {
		"name": "남악도청점",
		"tel": "061-285-9959",
		"address": "전남 무안군 삼향읍 남악리 1556",
		"lng": "126.46949343692967",
		"lat": "34.811525255676045"
	},
	"345": {
		"name": "(신)내서호계점",
		"tel": "055-294-7477",
		"address": "경남 창원시 마산회원구 내서읍 호계리 80 코오롱2차 1동202호",
		"lng": "128.52313203925155",
		"lat": "35.26386298204251"
	},
	"346": {
		"name": "사직점",
		"tel": "051-507-1588",
		"address": "부산 동래구 사직북로 3 백진빌딩 2층",
		"lng": "129.06067428517795",
		"lat": "35.19617893340712"
	},
	"347": {
		"name": "천안신방점",
		"tel": "041-575-5292",
		"address": "충남 천안시 동남구 수곡로 61",
		"lng": "127.12637168400032",
		"lat": "36.788746431134605"
	},
	"348": {
		"name": "상산효자점",
		"tel": "063-222-4945",
		"address": "전북 전주시 완산구 효자동 1가 652 비사벌상가 2동  109",
		"lng": "127.11512292170211",
		"lat": "35.80348845649693"
	},
	"349": {
		"name": "함열점",
		"tel": "063-862-0630",
		"address": "전북 익산시 함열읍 와리 551-20",
		"lng": "126.9597395393837",
		"lat": "36.0791692450979"
	},
	"350": {
		"name": "덕계점",
		"tel": "055-388-0121",
		"address": "경남 양산시 덕계동 742-13",
		"lng": "129.14979689061263",
		"lat": "35.37264502805631"
	},
	"351": {
		"name": "산곡1점",
		"tel": "032-514-0077",
		"address": "인천 부평구 산곡동 281-5 오남프라자108호",
		"lng": "126.71297096448272",
		"lat": "37.50206127125693"
	},
	"352": {
		"name": "천안상명대점",
		"tel": "041-522-9242",
		"address": "충남 천안시 동남구 상명대길 32(안서동 2층)",
		"lng": "127.17629654977713",
		"lat": "36.83255976162982"
	},
	"353": {
		"name": "공업탑점",
		"tel": "052-227-9282",
		"address": "울산 남구 신정4동 1232-7",
		"lng": "129.30985727492816",
		"lat": "35.53221865058645"
	},
	"354": {
		"name": "천안성거점",
		"tel": "041-565-9277",
		"address": "충남 천안시 서북구 성거읍 천흥리 421-4",
		"lng": "127.20224423624192",
		"lat": "36.874718915033206"
	},
	"355": {
		"name": "신정1점",
		"tel": "052-227-1252",
		"address": "울산 남구 신정동 75",
		"lng": "129.3213783929545",
		"lat": "35.545513249611965"
	},
	"356": {
		"name": "울산삼산점",
		"tel": "052-257-8242",
		"address": "울산 남구 삼산동 1540-16",
		"lng": "129.3381931142273",
		"lat": "35.54442771949375"
	},
	"357": {
		"name": "옥동점",
		"tel": "052-267-3392",
		"address": "울산 남구 옥동 590-15",
		"lng": "129.289682514131",
		"lat": "35.53571043477554"
	},
	"358": {
		"name": "반구중앙여고점",
		"tel": "052-286-3004",
		"address": "울산 중구 반구동 776-7",
		"lng": "129.3429773814782",
		"lat": "35.55319759015675"
	},
	"359": {
		"name": "신청주금천점",
		"tel": "043-225-1188",
		"address": "충북 청주시 상당구 쇠내로 90(금천동 1층)",
		"lng": "127.50361618715712",
		"lat": "36.624771423998446"
	},
	"360": {
		"name": "경남정보대점",
		"tel": "051-312-9191",
		"address": "부산 사상구 가야대로 366번길 65(주례동)",
		"lng": "129.01245759072012",
		"lat": "35.15093680800106"
	},
	"361": {
		"name": "팔용점",
		"tel": "055-295-9282",
		"address": "경남 창원시 의창구 팔용동 101번지 팔용종합상가 209호",
		"lng": "128.61350246997932",
		"lat": "35.255337381860166"
	},
	"362": {
		"name": "(신)포항오천점",
		"tel": "054-291-0028",
		"address": "경북 포항시 남구 오천읍 세계5리 857-12",
		"lng": "129.41550006088264",
		"lat": "35.96601239741917"
	},
	"363": {
		"name": "서창점",
		"tel": "032-473-3382",
		"address": "인천 남동구 서창동 540 서해＠상가 103호",
		"lng": "126.74788175530453",
		"lat": "37.43431660787717"
	},
	"364": {
		"name": "신곡장암점",
		"tel": "031-841-8982",
		"address": "경기 의정부시 신곡동 314-4",
		"lng": "127.06178675027063",
		"lat": "37.72889507040022"
	},
	"365": {
		"name": "명촌점",
		"tel": "052-287-8592",
		"address": "울산 북구 명촌동 853-2",
		"lng": "129.35786797211637",
		"lat": "35.552179117704625"
	},
	"366": {
		"name": "달동점",
		"tel": "052-260-1256",
		"address": "울산 남구 달동 1366-6",
		"lng": "129.33436632297287",
		"lat": "35.539596538943236"
	},
	"367": {
		"name": "양산서창점",
		"tel": "",
		"address": "경남 양산시 삼호동 1009-9",
		"lng": "129.16940384212964",
		"lat": "35.41377797659482"
	},
	"368": {
		"name": "(신)전하점",
		"tel": "052-234-9284",
		"address": "울산 동구 전하1동 618번지 한라한빛상가 104동 105호",
		"lng": "129.42683110776437",
		"lat": "35.5123465009008"
	},
	"369": {
		"name": "양정대학로점",
		"tel": "051-867-7799",
		"address": "부산 부산진구 양정로 11번길5 1층",
		"lng": "129.07439237419962",
		"lat": "35.17302642698862"
	},
	"370": {
		"name": "카톨릭대점",
		"tel": "051-516-9192",
		"address": "부산 금정구 부곡동 17-18",
		"lng": "129.09617082118535",
		"lat": "35.24304548393658"
	},
	"371": {
		"name": "벌교점",
		"tel": "061-858-3300",
		"address": "전남 보성군 벌교읍 벌교리 625-44",
		"lng": "127.34386769188113",
		"lat": "34.84341681300158"
	},
	"372": {
		"name": "천안단국대점",
		"tel": "041-578-9288",
		"address": "충남 천안시 동남구 신부동 252-1  2층",
		"lng": "127.16254106282041",
		"lat": "36.83107631557209"
	},
	"373": {
		"name": "이도점",
		"tel": "064-752-9282",
		"address": "제주시 이도2동 구남로6길 36",
		"lng": "126.5362748461058",
		"lat": "33.48769929361441"
	},
	"374": {
		"name": "춘천CGV점",
		"tel": "033-269-7722",
		"address": "강원 춘천시 퇴계동 1017번지 232호",
		"lng": "127.74371608392796",
		"lat": "37.85056744545682"
	},
	"375": {
		"name": "통정점",
		"tel": "041-574-9299",
		"address": "충남 천안시 동남구 신방동 1542번지 1층",
		"lng": "127.13341026822172",
		"lat": "36.774821927142334"
	},
	"376": {
		"name": "신평점",
		"tel": "041-363-9277",
		"address": "충남 당진시 신평면 거산리 12-11",
		"lng": "126.75472009335061",
		"lat": "36.88089511779412"
	},
	"377": {
		"name": "순천신대점",
		"tel": "061-811-3004",
		"address": "전남 순천시 해룡면 신대리 2005번지",
		"lng": "127.55254812303718",
		"lat": "34.93244389467415"
	},
	"378": {
		"name": "중동미리내점",
		"tel": "032-321-1382",
		"address": "경기도 부천시 원미구 중동 1144-2 디아뜨 b동108호",
		"lng": "126.77281353142759",
		"lat": "37.50103823269894"
	},
	"379": {
		"name": "거제엠파크점",
		"tel": "055-632-8357",
		"address": "경남 거제시 고현동 961-57 엠파크 201호",
		"lng": "128.62467915309782",
		"lat": "34.88929529670083"
	},
	"380": {
		"name": "센텀점",
		"tel": "051-783-8259",
		"address": "부산 해운대구 재송동 1212번지 111호",
		"lng": "129.12599954324267",
		"lat": "35.17549436199178"
	},
	"381": {
		"name": "원주롯데시네마점",
		"tel": "033-765-5010",
		"address": "강원도 원주시 단구동 1512-1 리더스타워206호",
		"lng": "127.94966336974812",
		"lat": "37.33021628286546"
	},
	"382": {
		"name": "중앙소양점",
		"tel": "033-911-7992",
		"address": "강원도 춘천시 중앙로 68번길 20번지",
		"lng": "127.72563361417254",
		"lat": "37.88083986682417"
	},
	"383": {
		"name": "오창점",
		"tel": "043-259-5600",
		"address": "충북 청원군 오창읍 오창중앙로 123-2 강녕빌딩 104호",
		"lng": "127.41664759706572",
		"lat": "36.709506745393135"
	},
	"384": {
		"name": "전북대점",
		"tel": "063-252-0054",
		"address": "전북 전주시 덕진구 덕진동1가 1266-22 2층",
		"lng": "127.12627001145218",
		"lat": "35.84227469478831"
	},
	"385": {
		"name": "안양연성대점",
		"tel": "031-8091-5050",
		"address": "경기도 안양시 만안구 안양3동 958-4 1층",
		"lng": "126.91265227675832",
		"lat": "37.39659869270993"
	},
	"386": {
		"name": "서면점",
		"tel": "051-804-8011",
		"address": "부산광역시 부산진구 부전동 187-13 2층",
		"lng": "129.0606253211528",
		"lat": "35.15458944330994"
	},
	"387": {
		"name": "구미옥계점",
		"tel": "054-471-3038",
		"address": "경북 구미시 옥계동 833-1 101호",
		"lng": "128.42025020294562",
		"lat": "36.13821220995504"
	},
	"388": {
		"name": "구월1점",
		"tel": "032-464-0418",
		"address": "인천광역시 남동구 구월동 70-14 흥인bd 103호",
		"lng": "126.7145654867601",
		"lat": "37.457497759915704"
	},
	"389": {
		"name": "창원신촌점",
		"tel": "055-286-2576",
		"address": "경남 창원시 성산구 신촌동 22-1 상가아파트 가-8",
		"lng": "128.62859442340854",
		"lat": "35.20215024772913"
	},
	"390": {
		"name": "양산서창점",
		"tel": "055-365-1088",
		"address": "경남 양산시 삼호동 1009-9",
		"lng": "129.16940384212964",
		"lat": "35.41377797659482"
	},
	"391": {
		"name": "남외점",
		"tel": " 052-296-9242",
		"address": "울산광역시 중구 남외동 510-1",
		"lng": "129.35080466349763",
		"lat": "35.56493184314042"
	},
	"392": {
		"name": "무선점",
		"tel": "061-685-9282",
		"address": "전라남도 여수시 무선중앙로 7-1(화장동)",
		"lng": "127.6464498218094",
		"lat": "34.77604453995709"
	},
	"393": {
		"name": "산호점",
		"tel": "",
		"address": "경남 창원시 마산합포구 합포로 250",
		"lng": "128.58733558222212",
		"lat": "35.21949008067103"
	},
	"394": {
		"name": "무선점",
		"tel": "061-685-9282",
		"address": "전라남도 여수시 무선중앙로 7-1",
		"lng": "127.64659765612072",
		"lat": "34.7759500096081"
	},
	"395": {
		"name": "산호점",
		"tel": "055-246-3038",
		"address": "경남 창원시 마산합포구 합포로 250",
		"lng": "128.58733558222212",
		"lat": "35.21949008067103"
	},
	"396": {
		"name": "구영리점",
		"tel": "052-211-4292",
		"address": "울산광역시 울주군 범서읍 구영리 853-1",
		"lng": "129.24100446009368",
		"lat": "35.57352610143233"
	},
	"397": {
		"name": "서경대점",
		"tel": "02-910-8892",
		"address": "서울시 성북구 정릉동 227-178",
		"lng": "127.01400775573181",
		"lat": "37.61137217238255"
	},
	"398": {
		"name": "대구다사점",
		"tel": "053-587-2357",
		"address": "대구광역시 달성군 다사읍 매곡리 699-5",
		"lng": "128.4595071376361",
		"lat": "35.86268983791347"
	},
	"399": {
		"name": "명지점",
		"tel": "051-208-7788",
		"address": "부산광역시 강서구 명지동 3237-46 리치몬드프라자103",
		"lng": "128.9029971276952",
		"lat": "35.08169901320513"
	},
	"400": {
		"name": "정관1호점",
		"tel": "051-727-4282",
		"address": "부산광역시 기장군 정관면 용수리 1328-2 드림빌딩101",
		"lng": "129.17083849548936",
		"lat": "35.32570261485872"
	},
	"401": {
		"name": "동의대점",
		"tel": "051-898-4282",
		"address": "부산광역시 부산진구 가야동 176-5",
		"lng": "129.0310808540555129,
		"lat": "35.1532825815879735
	},
	"402": {
		"name": "신동의대점",
		"tel": "051-898-4282",
		"address": "부산광역시 부산진구 엄광로 176-5, 3층 302호(가야동",
		"lng": "129.03392748467385",
		"lat": "35.147215007089464"
	},
	"403": {
		"name": "경성대점",
		"tel": "051-612-2298",
		"address": "부산광역시 남구 대연동 73-29",
		"lng": "129.10008686816198",
		"lat": "35.13767997276875"
	},
	"404": {
		"name": "반지반림점",
		"tel": "055-289-9285",
		"address": "경남 창원시 성산구 반지동 80-5",
		"lng": "128.66319162244005",
		"lat": "35.240342306877835"
	},
	"405": {
		"name": "서산한서대점",
		"tel": "041-688-9288",
		"address": "충남 서산시 해미면 대곡리 397-3 궁전빌딩1",
		"lng": "126.57925287112991",
		"lat": "36.69039577102641"
	},
	"406": {
		"name": "고려대세종캠퍼스점",
		"tel": "044-868-9288",
		"address": "세종시 조치원읍 서창리 177",
		"lng": "127.2898755272955",
		"lat": "36.608559784209746"
	},
	"407": {
		"name": "천안백석대점",
		"tel": "041-568-9288",
		"address": "충남 천안시 동남구 문암로 74-4 201(안서동)",
		"lng": "127.18136510913824",
		"lat": "36.840863939400016"
	},
	"408": {
		"name": "이시아폴리스점",
		"tel": "053-984-7942",
		"address": "대구광역시 동구 팔공로 250-107",
		"lng": "128.64053035070773",
		"lat": "35.921007401197166"
	},
	"409": {
		"name": "충청대점",
		"tel": "043-232-3765",
		"address": "충북 청원군 강내면 월곡리 280-7",
		"lng": "127.36873470678016",
		"lat": "36.62273841092629"
	},
	"410": {
		"name": "정왕점",
		"tel": "031-497-9288",
		"address": "경기도 시흥시 정왕4동 1884-7 한양코아1층",
		"lng": "126.72985624791882",
		"lat": "37.36293410477742"
	},
	"411": {
		"name": "수진역점",
		"tel": "031-752-7773",
		"address": "경기도 성남시 중원구 성남동 2509번지 2층",
		"lng": "127.14182525310265",
		"lat": "37.436360092076804"
	},
	"412": {
		"name": "강남대점",
		"tel": "031-275-3078",
		"address": "경기도 용인시 기흥구 구갈동 581-1",
		"lng": "127.12614511577029",
		"lat": "37.2711041218685"
	},
	"413": {
		"name": "진해중앙점",
		"tel": "055-552-6002",
		"address": "경남 창원시 진해구 화천동 47-5",
		"lng": "128.6635558258592",
		"lat": "35.151808098315"
	},
	"414": {
		"name": "한밭대점",
		"tel": "042-826-5020",
		"address": "대전시 유성구 덕명동 597-18",
		"lng": "127.30049207925563",
		"lat": "36.347933036880555"
	},
	"415": {
		"name": "호계점",
		"tel": "052-292-3013",
		"address": "울산광역시 북구 호계동 260-12",
		"lng": "129.35243588697264",
		"lat": "35.628809502080756"
	},
	"416": {
		"name": "가재울점",
		"tel": "02-302-9677",
		"address": "서울시 서대문구 수색로100 DMC래미안E상가 203동",
		"lng": "126.90781692543364",
		"lat": "37.57472790976174"
	},
	"417": {
		"name": "대구대점",
		"tel": "053-852-2253",
		"address": "경북 경산시 진량읍 내리리 94-9 2층",
		"lng": "128.85055128409286",
		"lat": "35.89661154219303"
	},
	"418": {
		"name": "강촌점",
		"tel": "033-264-5885",
		"address": "강원도 춘천시 남산면 강촌리 239-22",
		"lng": "127.63486892776282",
		"lat": "37.81205328584785"
	},
	"419": {
		"name": "여수중앙점",
		"tel": "061-641-3739",
		"address": "전남 여수시 중앙동 48",
		"lng": "127.73827475742296",
		"lat": "34.73864811367404"
	},
	"420": {
		"name": "홍성법원점",
		"tel": "041-633-9299",
		"address": "충남 홍성군 홍성읍 월산리 862-3",
		"lng": "126.65213477019047",
		"lat": "36.59990508838964"
	},
	"421": {
		"name": "우송대점",
		"tel": "042-639-0008",
		"address": "대전시 동구 자양동 56-9 2층",
		"lng": "127.44726695026318",
		"lat": "36.33677869028876"
	},
	"422": {
		"name": "혜천대점",
		"tel": "042-586-0292",
		"address": "대전광역시 서구 복수남로38,101(복수동)",
		"lng": "127.37721728524232",
		"lat": "36.29836329849062"
	},
	"423": {
		"name": "논산건양대점",
		"tel": "041-742-9288",
		"address": "충남 논산시 은진면 와야리 125-18",
		"lng": "127.11242238689549",
		"lat": "36.18104333503734"
	},
	"424": {
		"name": "광양용강점",
		"tel": "061-761-3009",
		"address": "전라남도 광양시 광양읍 용강로 47",
		"lng": "127.60782881304867",
		"lat": "34.973830548046415"
	},
	"425": {
		"name": "한남대점",
		"tel": "042-626-9998",
		"address": "대전광역시 대덕구 한남로12번길 43(오정동,1층)",
		"lng": "127.42489586721184",
		"lat": "36.35222714329784"
	},
	"426": {
		"name": "부산신반여점",
		"tel": "051-523-1531",
		"address": "부산광역시 해운대구 선수촌로 81-1(반여동)",
		"lng": "129.11908485573764",
		"lat": "35.201009895648355"
	},
	"427": {
		"name": "함양점",
		"tel": "055-962-9233",
		"address": "경남 함양읍 용평리 694-5번지 2층",
		"lng": "127.72819777799906",
		"lat": "35.5204187428604"
	},
	"428": {
		"name": "태안점",
		"tel": "041-673-8892",
		"address": "충남 태안군 태안읍 동문1길 73",
		"lng": "126.30542298648103",
		"lat": "36.749649571087254"
	},
	"429": {
		"name": "계대동문점",
		"tel": "053-587-5551",
		"address": "대구광역시 달서구 신당동 1790-9 2층",
		"lng": "128.49375080388464",
		"lat": "35.85537682398684"
	},
	"430": {
		"name": "영남대점",
		"tel": "053-811-7792",
		"address": "경북 경산시 대동 170-6 2층",
		"lng": "128.7531837314819",
		"lat": "35.83680027552309"
	},
	"431": {
		"name": "신계산본점",
		"tel": "032-556-8088",
		"address": "인천광역시 계양구 계산새로 93 102호",
		"lng": "126.73850341590447",
		"lat": "37.53816057416872"
	},
	"432": {
		"name": "가능역점",
		"tel": "031-871-7745",
		"address": "경기도 의정부시 가능동 648-17 1층",
		"lng": "127.04235026072605",
		"lat": "37.74840423965983"
	},
	"433": {
		"name": "녹양점",
		"tel": "031-837-8822",
		"address": "경기도 의정부시 녹양동 354-6 1층",
		"lng": "127.03358531253598",
		"lat": "37.75669596337524"
	},
	"434": {
		"name": "홍익대세종캠퍼스점",
		"tel": "044-867-9288",
		"address": "세종특별자치시 조치원읍 섭골골목길 19-5(외1필지)",
		"lng": "127.28672178724243",
		"lat": "36.61655149599878"
	},
	"435": {
		"name": "서대신점",
		"tel": "051-244-3232",
		"address": "부산광역시 서구 구덕로321번길 10",
		"lng": "129.01606323732076",
		"lat": "35.11241834720711"
	},
	"436": {
		"name": "연삼로점",
		"tel": "064-756-9299",
		"address": "제주시 연삼로 503(이도이동)",
		"lng": "126.54300698013338",
		"lat": "33.50067840387648"
	},
	"437": {
		"name": "아산용화점",
		"tel": "041-547-9277",
		"address": "충남 아산시 용화동 584 온천마을 아파트상가",
		"lng": "127.00054663281179",
		"lat": "36.77451465534913"
	},
	"438": {
		"name": "이천중앙점",
		"tel": "031-637-2172",
		"address": "경기도 이천시 창전동 161-13번지 2층",
		"lng": "127.44527299179218",
		"lat": "37.27998942064293"
	},
	"439": {
		"name": "이도점",
		"tel": "064-752-9282",
		"address": "제주시 이도2동 구남로 6길 36",
		"lng": "126.53599603429501",
		"lat": "33.48752153747286"
	},
	"440": {
		"name": "천안두정점",
		"tel": "041-567-9588",
		"address": "충남 천안시 서북구 두정로 173",
		"lng": "127.13627964139025",
		"lat": "36.83400727639078"
	},
	"441": {
		"name": "진동점",
		"tel": "055-271-9203",
		"address": "경남 창원시 마산합포구 진동면 진동리 432-7번지",
		"lng": "128.4876828944723",
		"lat": "35.11835896485381"
	},
	"442": {
		"name": "천상점",
		"tel": "052-244-2977",
		"address": "울산시 울주군 범서읍 천상중앙길 104",
		"lng": "129.2251083682395",
		"lat": "35.5624887638211"
	},
	"443": {
		"name": "대림대점",
		"tel": "031-466-3038",
		"address": "경기도 안양시 동안구 임곡로 42,1층(비산동)",
		"lng": "126.9324821461082",
		"lat": "37.403138676174706"
	},
	"444": {
		"name": "퇴계점",
		"tel": "033-257-7992",
		"address": "강원도 춘천시 춘주로201번길4(퇴계동,1층)",
		"lng": "127.72776262139675",
		"lat": "37.861085519635154"
	},
	"445": {
		"name": "순천중앙점",
		"tel": "061-752-1515",
		"address": "전라남도 순천시 중앙로 110-2(중앙동,1층)",
		"lng": "127.48426718386749",
		"lat": "34.95543921331195"
	},
	"446": {
		"name": "오산대점",
		"tel": "031-378-4545",
		"address": "경기도 오산시 청학로 39(청학동)",
		"lng": "127.06290008393937",
		"lat": "37.15305220037811"
	},
	"447": {
		"name": "부산교대점",
		"tel": "051-506-9192",
		"address": "부산광역시 연제구 교대로7(거제동,1층)",
		"lng": "129.07894070322106",
		"lat": "35.19526822749108"
	},
	"448": {
		"name": "광양중동점",
		"tel": "061-973-2262",
		"address": "전남 광양시 광장1길 17",
		"lng": "127.6971113270348",
		"lat": "34.93557632768511"
	},
	"449": {
		"name": "응암점",
		"tel": "02-303-9804",
		"address": "서울특별시 은평구 증산로 473",
		"lng": "126.91530221626316",
		"lat": "37.59840799980921"
	},
	"450": {
		"name": "부산대2호점",
		"tel": "051-582-4240",
		"address": "부산광역시 금정구 금정로60번길31",
		"lng": "129.0880799193512",
		"lat": "35.22960332479937"
	},
	"451": {
		"name": "남포동점",
		"tel": "051-244-5482",
		"address": "부산광역시 중구 구덕로 48번길 3",
		"lng": "129.0304882866701",
		"lat": "35.098677895852184"
	},
	"452": {
		"name": "상동역점",
		"tel": "032-328-1004",
		"address": "경기도 부천시 상동 534-2 상동프라자 104호",
		"lng": "126.75297057700543",
		"lat": "37.50722253555345"
	},
	"453": {
		"name": "마전점",
		"tel": "032-561-5953",
		"address": "인천광역시 서구 마전동 621-3 정우프라자 103호",
		"lng": "126.66968220181155",
		"lat": "37.5957561280791"
	},
	"454": {
		"name": "성결대점",
		"tel": "031-8033-8668",
		"address": "경기도 안양시 만안구 안양동 성결대학로 38",
		"lng": "126.93015227313528",
		"lat": "37.38227685344384"
	},
	"455": {
		"name": "서산해미읍점",
		"tel": "041-688-9280",
		"address": "충남 서산시 해미면 읍내리 300-5",
		"lng": "126.54441712701306",
		"lat": "36.71265859633369"
	},
	"456": {
		"name": "영산대점",
		"tel": "051-545-9888",
		"address": "부산광역시 해운대구 반송 순환로 141",
		"lng": "129.15285757497736",
		"lat": "35.22338207926532"
	},
	"457": {
		"name": "서면1번가점",
		"tel": "051-817-3363",
		"address": "부산광역시 진구 중앙대로 687 한성빌딩1층",
		"lng": "129.05893150891762",
		"lat": "35.15408115781321"
	},
	"458": {
		"name": "석동점",
		"tel": "055-546-4249",
		"address": "경남 창원시 진해구 석동 654-3 세븐코아bd 109-111",
		"lng": "128.704452105456",
		"lat": "35.155482517150915"
	},
	"459": {
		"name": "안락점",
		"tel": "051-522-3666",
		"address": "부산광역시 동래구 안락동 471-2",
		"lng": "129.11264034511336",
		"lat": "35.19990780704162"
	},
	"460": {
		"name": "만덕점",
		"tel": "051-987-9292",
		"address": "부산광역시 북구 만덕2동 269-3",
		"lng": "129.03504794930225",
		"lat": "35.2110094198149"
	},
	"461": {
		"name": "창원봉림점",
		"tel": "055-288-4205",
		"address": "경남 창원시 의창구 봉림동 713-1 애플타운 201호",
		"lng": "128.66730470976898",
		"lat": "35.25130219391191"
	},
	"462": {
		"name": "순천호수공원점",
		"tel": "061-725-4292",
		"address": "전남 순천시 왕지2길 19-5(왕지동,2층)",
		"lng": "127.5233896103773",
		"lat": "34.96817742759603"
	},
	"463": {
		"name": "청주대점",
		"tel": "043-223-3392",
		"address": "충북 청주시 상당구 우암동 210-5",
		"lng": "127.49348756769207",
		"lat": "36.651443929338534"
	},
	"464": {
		"name": "배재대점",
		"tel": "042-538-2225",
		"address": "대전광역시 서구 도마동 50-6",
		"lng": "127.37048210672974",
		"lat": "36.32242426989917"
	},
	"465": {
		"name": "상인점",
		"tel": "053-635-1989",
		"address": "대구광역시 달서구 상인동 1401-1 2층",
		"lng": "128.53853129557535",
		"lat": "35.817658816255744"
	},
	"466": {
		"name": "신송현점",
		"tel": "053-555-9953",
		"address": "대구광역시 달서구 월배로75길69(송현동,1층)",
		"lng": "128.54719622793797",
		"lat": "35.83062514941829"
	},
	"467": {
		"name": "부산외대점",
		"tel": "",
		"address": "부산광역시 금정구 금샘로 485번길 65(남산동)",
		"lng": "129.08050096052648",
		"lat": "35.266875532314955"
	},
	"468": {
		"name": "당리점",
		"tel": "051-293-7666",
		"address": "부산광역시 사하구 제석로 66(당리동)",
		"lng": "128.9751293929389",
		"lat": "35.10622544360338"
	},
	"469": {
		"name": "김천평화점",
		"tel": "054-437-9933",
		"address": "경북 김천시 평화동 245-22",
		"lng": "128.11127562813667",
		"lat": "36.12553465497677"
	},
	"470": {
		"name": "경북대점",
		"tel": "053-944-5582",
		"address": "대구광역시 북구 산격동 1393-25",
		"lng": "128.60873624343122",
		"lat": "35.89283567438093"
	},
	"471": {
		"name": "구미구평점",
		"tel": "054-472-2711",
		"address": "경북 구미시 구평동 446-3 금강빌딩1층",
		"lng": "128.4326620406213",
		"lat": "36.09349449147655"
	},
	"472": {
		"name": "가평수목원점",
		"tel": "031-585-3551",
		"address": "경기도 가평군 상면 수목원로 2",
		"lng": "127.37187370430308",
		"lat": "37.77359991220033"
	},
	"473": {
		"name": "다운점",
		"tel": "",
		"address": "울산광역시 중구 다운동 779-4",
		"lng": "129.26693986109544129,
		"lat": "35.56286245453388535
	},
	"474": {
		"name": "대천해수욕장점",
		"tel": "041-933-9281",
		"address": "충남 보령시 머드로 137(신흑동)",
		"lng": "126.51009848567713",
		"lat": "36.31634951964118"
	},
	"475": {
		"name": "송우점",
		"tel": "031-544-8592",
		"address": "경기도 포천시 소홀읍 솔모루로 30",
		"lng": "".,
		"lat": "".
	},
	"476": {
		"name": "신효성점",
		"tel": "032-554-8885",
		"address": "인천광역시 계양구 효성동 33-22",
		"lng": "126.70948214271048",
		"lat": "37.535011332557644"
	},
	"477": {
		"name": "화명롯데점",
		"tel": "051-365-1566",
		"address": "부산광역시 북구 화명동 2272-2",
		"lng": "129.0116706048059",
		"lat": "35.23546129175786"
	},
	"478": {
		"name": "이천점",
		"tel": "031-637-2172",
		"address": "경기도 이천시 창전동 161-13 2층",
		"lng": "127.44527299179218",
		"lat": "37.27998942064293"
	},
	"479": {
		"name": "하양점",
		"tel": "053-216-6100",
		"address": "경북 경산시 하양읍 금락리 131-133",
		"lng": "128.81446663517542",
		"lat": "35.91005174074832"
	},
	"480": {
		"name": "율하광장점",
		"tel": "053-963-7005",
		"address": "대구광역시 동구 율하동 1438번지 106호",
		"lng": "128.69636491787125",
		"lat": "35.863262149703885"
	},
	"481": {
		"name": "용평리조트점",
		"tel": "",
		"address": "강원도 평창군 대관령면 용산리 17-3",
		"lng": "128.68602413654637",
		"lat": "37.646289357645216"
	},
	"482": {
		"name": "신구미송정점",
		"tel": "054-444-2289",
		"address": "경북 구미시 송정동 3번지",
		"lng": "128.33975091348967",
		"lat": "36.12326542493735"
	},
	"483": {
		"name": "만수3지구점",
		"tel": "032-466-8300",
		"address": "인천광역시 남동구 만수동 1019-5 1층",
		"lng": "126.73681662851861",
		"lat": "37.44366662780498"
	},
	"484": {
		"name": "신홍성터미널점",
		"tel": "041-631-9288",
		"address": "충남 홍성군 홍성읍 조양로 247번길 9",
		"lng": "126.67641344359957",
		"lat": "36.60106566005243"
	},
	"485": {
		"name": "신태화점",
		"tel": "052-244-9001",
		"address": "울산광역시 중구 태화동 474-1",
		"lng": "129.2967395906751",
		"lat": "35.5516980443268"
	},
	"486": {
		"name": "울산대송점",
		"tel": "052-234-2002",
		"address": "울산광역시 동구 학문로 71",
		"lng": "129.4214137569214",
		"lat": "35.503401736623054"
	},
	"487": {
		"name": "율하관동점",
		"tel": "055-325-6692",
		"address": "경상남도 김해시 율하3로91번길 14-17(관동동)",
		"lng": "128.8144753011804",
		"lat": "35.17661631225339"
	},
	"488": {
		"name": "아이스퀘어점",
		"tel": "055-903-7332",
		"address": "경남 김해시 김해대로 2342 c301-2호",
		"lng": "128.88323896998136",
		"lat": "35.2257301591857"
	},
	"489": {
		"name": "석동점",
		"tel": "055-546-4249",
		"address": "경남 창원시 진해구 석동 654-3 세븐코아bd 109-111",
		"lng": "128.704452105456",
		"lat": "35.155482517150915"
	},
	"490": {
		"name": "안락점",
		"tel": "051-522-3666",
		"address": "부산광역시 동래구 명장로 133-1(안락동)",
		"lng": "129.11261391511434",
		"lat": "35.19990466376577"
	},
	"491": {
		"name": "만덕점",
		"tel": "051-987-9292",
		"address": "부산광역시 북구 만덕2동 269-3",
		"lng": "129.03504794930225",
		"lat": "35.2110094198149"
	},
	"492": {
		"name": "함덕점",
		"tel": "064-783-9299",
		"address": "제주시 조천읍 함덕로 38",
		"lng": "126.67127945443826",
		"lat": "33.54215819471293"
	},
	"493": {
		"name": "서천점",
		"tel": "041-953-9288",
		"address": "충남 서천군 서천읍 사곡리 318-6",
		"lng": "126.686527555071",
		"lat": "36.08028371841333"
	},
	"494": {
		"name": "행복로점",
		"tel": "031-848-8982",
		"address": "경기도 의정부시 행복로 40-1(의정부동)",
		"lng": "127.05061079170319",
		"lat": "37.74198248251907"
	},
	"495": {
		"name": "연산점",
		"tel": "051-867-4289",
		"address": "부산광역시 연제구 반송로 37(연산동,1층)",
		"lng": "129.08440593578263",
		"lat": "35.1884948953334"
	},
	"496": {
		"name": "칠곡석적점",
		"tel": "054-977-8230",
		"address": "경북 칠곡군 석적읍 중리 203-3",
		"lng": "128.4140174537277",
		"lat": "36.07760367650932"
	},
	"497": {
		"name": "중동역점",
		"tel": "",
		"address": "경기도 부천시 중동 808번지",
		"lng": "126.76580152683465",
		"lat": "37.48811854386549"
	},
	"498": {
		"name": "중동역점",
		"tel": "032-613-3946",
		"address": "경기도 부천시 중동 808번지",
		"lng": "126.76580152683465",
		"lat": "37.48811854386549"
	},
	"499": {
		"name": "강릉포남점",
		"tel": "033-653-8592",
		"address": "강원도 강릉시 포남동 1300-2",
		"lng": "128.91517589461557",
		"lat": "37.772527095558374"
	},
	"500": {
		"name": "하단가락점",
		"tel": "051-205-2223",
		"address": "부산 사하구 하단동 1180-10",
		"lng": "128.95815737937767",
		"lat": "35.09978521207851"
	},
	"501": {
		"name": "안면터미널점",
		"tel": "041-673-8895",
		"address": "충남 태안군 안면읍 장터로 129",
		"lng": "126.34521389415102",
		"lat": "36.51879896532199"
	},
	"502": {
		"name": "당진읍내점",
		"tel": " 041-357-9277",
		"address": "충남 당진시 당진중앙2로 117-36",
		"lng": "126.63085268169453",
		"lat": "36.89502485256168"
	},
	"503": {
		"name": "인천송도점",
		"tel": "032-858-7595",
		"address": "인천 연수구 송도동 3-1 밀레니엄 1층 124호",
		"lng": "126.65094368958886",
		"lat": "37.39567605949552"
	},
	"504": {
		"name": "원주단계점",
		"tel": "033-742-8292",
		"address": "강원 원주시 단계동 872-3",
		"lng": "127.93006315887891",
		"lat": "37.34528172379926"
	},
	"505": {
		"name": "청주봉명점",
		"tel": "043-236-4239",
		"address": "충북 청주시 흥덕구 직지대로 561",
		"lng": "127.45528296565864",
		"lat": "36.64356162642716"
	},
	"506": {
		"name": "유곡점",
		"tel": "052-248-0815",
		"address": "울산광역시 유곡동 평동1길 42",
		"lng": "129.30500492946652",
		"lat": "35.55925333911098"
	},
	"507": {
		"name": "굴화장검점",
		"tel": "052-975-0505",
		"address": "울산광역시 울주군 범서읍 장검길 75",
		"lng": "129.2516611650929",
		"lat": "35.55265682038456"
	},
	"508": {
		"name": "창원신월점",
		"tel": "055-264-0046",
		"address": "경남 창원시 의창구 신월동 74-16",
		"lng": "128.69006178836165",
		"lat": "35.225352250023064"
	},
	"509": {
		"name": "대전보건대점",
		"tel": "042-622-3998",
		"address": "대전광역시 동구 가양동 162-3 대복빌딩2층",
		"lng": "127.45100665438589",
		"lat": "36.347885120430064"
	},
	"510": {
		"name": "칠곡북삼점",
		"tel": "054-972-5582",
		"address": "경북 칠곡군 북삼읍 인평리 1088-2",
		"lng": "128.34787488716785",
		"lat": "36.069574331680215"
	},
	"511": {
		"name": "김포사우점",
		"tel": "031-985-8186",
		"address": "경기도 김포시 북변동 825번지 테마프라자 1층104호",
		"lng": "126.72055795218893",
		"lat": "37.62186119098568"
	},
	"512": {
		"name": "당진기지시점",
		"tel": "041-353-9282",
		"address": "충남 당진시 송악읍 기지시1길62(오문빌딩)",
		"lng": "126.69290261755599",
		"lat": "36.904042957604624"
	},
	"513": {
		"name": "호남대점",
		"tel": "062-942-3939",
		"address": "광주 광산구 선운로5(선암동,2층202호)",
		"lng": "126.77005242404776126,
		"lat": "35.1481794207674735
	},
	"514": {
		"name": "지산점",
		"tel": "053-784-3645",
		"address": "대구광역시 수성구 지범로 170",
		"lng": "128.63810408607767",
		"lat": "35.821735269752736"
	},
	"515": {
		"name": "다운점",
		"tel": "052-222-9400",
		"address": "울산광역시 중구 다운로 113(다운동,1층)",
		"lng": "129.26694437128995",
		"lat": "35.56286597396338"
	},
	"516": {
		"name": "전주대점",
		"tel": "063-225-3600",
		"address": "전라북도 전주시 완산구 서원로 8 (효자동3가)",
		"lng": "127.0952292147814",
		"lat": "35.81340171859285"
	},
	"517": {
		"name": "고흥점",
		"tel": "061-832-3310",
		"address": "전남 고흥군 고흥읍 남계리 686-10",
		"lng": "127.28948705545226",
		"lat": "34.609863458178374"
	},
	"518": {
		"name": "당감점",
		"tel": "051-894-8886",
		"address": "부산광역시 부산진구 당감동 730-64",
		"lng": "129.03878958694443",
		"lat": "35.16653717625225"
	},
	"519": {
		"name": "경복대점",
		"tel": "031-529-1553",
		"address": "경기도 남양주시 진접읍 경복대로 434 1층",
		"lng": "127.21280857461117",
		"lat": "37.73409616592504"
	},
	"520": {
		"name": "모라점",
		"tel": "051-326-9982",
		"address": "부산광역시 사상구 모라동 1357 우성아파트상가 117호",
		"lng": "128.9917435883477",
		"lat": "35.18789208918825"
	},
	"521": {
		"name": "수정점",
		"tel": "051-441-7582",
		"address": "부산시 동구 수정동 194",
		"lng": "129.04732235172662",
		"lat": "35.12919669146081"
	},
	"522": {
		"name": "대동사거리점",
		"tel": "051-702-3336",
		"address": "부산광역시 해운대구 좌동 1407-3 대하프라자 107호",
		"lng": "129.1755228220732",
		"lat": "35.17808581317719"
	},
	"523": {
		"name": "장산역점",
		"tel": "051-702-5003",
		"address": "부산해운대구해운대로 814 세종월드프라자 145호",
		"lng": "129.1776796648616",
		"lat": "35.169576350511036"
	},
	"524": {
		"name": "반여2호점 ",
		"tel": "051-784-2210",
		"address": "부산광역시 해운대구 반여동 1291-1507",
		"lng": "129.13069633798887",
		"lat": "35.19648777077902"
	},
	"525": {
		"name": "수성구청점",
		"tel": "053-742-4243",
		"address": "대구광역시 수성구 범어동 장미아파트상가 101호",
		"lng": "".,
		"lat": "".
	},
	"526": {
		"name": "신포점",
		"tel": "032-765-5050",
		"address": "인천 중구 신포동 62-1",
		"lng": "126.62586470140322",
		"lat": "37.47175283450567"
	},
	"527": {
		"name": "문수로아이파크점",
		"tel": "052-960-9292",
		"address": "울산 남구 신정동 1222-5 협성휴포레 112호",
		"lng": "129.3049358198674",
		"lat": "35.5378958544625"
	},
	"528": {
		"name": "울산롯데캐슬점",
		"tel": "052-256-5477",
		"address": "울산광역시 남구 야음동 725-7",
		"lng": "129.31812750304996",
		"lat": "35.525114497360484"
	},
	"529": {
		"name": "지산점",
		"tel": "",
		"address": "대구광역시 수성구 지범로 170",
		"lng": "128.63810408607767",
		"lat": "35.821735269752736"
	},
	"530": {
		"name": "수원대점",
		"tel": "031-239-1009",
		"address": "경기도 화성시 봉담읍 와우리 43-3 번지 2동",
		"lng": "126.97899530774608",
		"lat": "37.214407208929686"
	},
	"531": {
		"name": "한국외대글로벌점",
		"tel": "",
		"address": "경기도 용인시 처인구 모현면 외대로 81 한국외대 3층",
		"lng": "127.26859100747774",
		"lat": "37.337737735751986"
	},
	"532": {
		"name": "인하대점",
		"tel": "032-875-5542",
		"address": "인천 남구 용현동 182-6",
		"lng": "126.65740998104333",
		"lat": "37.45175963679511"
	},
	"533": {
		"name": "원광대점",
		"tel": "063-852-0125",
		"address": "전북 익산시 신동 763-13",
		"lng": "126.95742607510861",
		"lat": "35.96329904173058"
	},
	"534": {
		"name": "원주연세대점",
		"tel": "033-766-4974",
		"address": "강원도 원주시 흥업면 연세대길1(연세대학교 학생회관",
		"lng": "127.90432797761896",
		"lat": "37.27483165405356"
	},
	"535": {
		"name": "광안해변점",
		"tel": "051-755-9233",
		"address": "부산광역시 수영구 광안해변로 229,103(민락동)",
		"lng": "129.11908449863324",
		"lat": "35.1543268273761"
	},
	"536": {
		"name": "경찰대학교점",
		"tel": "",
		"address": "경기도 용인시 기흥구 언남동 88 경찰대 학생식당1층",
		"lng": "127.13178445502884",
		"lat": "37.29813273437759"
	},
	"537": {
		"name": "과기대점",
		"tel": "02-978-8292",
		"address": "서울특별시 노원구 공릉동 440-16 2층",
		"lng": "127.07673017047898",
		"lat": "37.629115533154774"
	},
	"538": {
		"name": "마천점",
		"tel": "02-402-1144",
		"address": "서울시 송파구 마천로 315 101-101(마천동,현대아울렛",
		"lng": "127.15097391544298",
		"lat": "37.4951667289925"
	},
	"539": {
		"name": "덕천점",
		"tel": "051-338-3500",
		"address": "부산광역시 북구 백양대로 1202(덕천동)",
		"lng": "129.00594012339707",
		"lat": "35.20970744903493"
	},
	"540": {
		"name": "신전농동점",
		"tel": "02-2245-9292",
		"address": "서울 동대문구 전농동 124-2",
		"lng": "127.05313426035836",
		"lat": "37.58324291052034"
	},
	"541": {
		"name": "용호점",
		"tel": "051-612-5757",
		"address": "부산광역시 남구 용호로 158(용호동)",
		"lng": "129.11144266983757",
		"lat": "35.118287942336984"
	},
	"542": {
		"name": "임학점",
		"tel": "032-547-1233",
		"address": "인천광역시 계양구 임학동 6-23",
		"lng": "126.73926748975181",
		"lat": "37.54618834714237"
	},
	"543": {
		"name": "호평역점",
		"tel": "031-591-8588",
		"address": "경기도 남양주시 늘을2로 14번길 5",
		"lng": "127.24456885446058",
		"lat": "37.65411812803558"
	},
	"544": {
		"name": "다대2호점",
		"tel": "051~263~0055",
		"address": "부사광역시 사하구 다대낙조1길 5(다대동)",
		"lng": "".,
		"lat": "".
	},
	"545": {
		"name": "제주대점",
		"tel": "064-726-9299",
		"address": "제주특별자치도 제주시 제주대학로 115 (아라이동,1층)",
		"lng": "126.56227050956667",
		"lat": "33.4604105126163"
	},
	"546": {
		"name": "충장점",
		"tel": "062-227-3456",
		"address": "광주광역시 동구 충장로 2가 29-1",
		"lng": "126.9156880403269",
		"lat": "35.14801494054495"
	},
	"547": {
		"name": "구례점",
		"tel": "061-781-5553",
		"address": "전남 구례군 구례읍 봉성로 51",
		"lng": "127.46438419250882",
		"lat": "35.20681276921135"
	},
	"548": {
		"name": "울주언양점",
		"tel": "052-254-9987",
		"address": "울산광역시 울주군 언양읍 동부리 369-17번지",
		"lng": "129.12133003330678",
		"lat": "35.57041207928179"
	},
	"549": {
		"name": "양주백석점",
		"tel": "031-873-0330",
		"address": "경기도 양주시 백석읍 복지리 107-4",
		"lng": "126.99140395258863",
		"lat": "37.78607188033074"
	},
	"550": {
		"name": "재능대점",
		"tel": "032-764-5580",
		"address": "인천 동구 송림동 343 동산휴먼시아 상가동 207호",
		"lng": "126.65067450323944",
		"lat": "37.47307577715225"
	},
	"551": {
		"name": "부산재송점",
		"tel": "051-783-9797",
		"address": "부산광역시 해운대구 재반로 79(재송동)",
		"lng": "129.12561918806028",
		"lat": "35.18550016079044"
	},
	"552": {
		"name": "밀양하남점",
		"tel": "055-391-1777",
		"address": "경상남도 밀양시 하남읍 수산리 467-49",
		"lng": "128.71160396648278",
		"lat": "35.37411225751444"
	},
	"553": {
		"name": "부평구청점 ",
		"tel": "032-504-2244",
		"address": "인천 부평구 부평4동 884-9",
		"lng": "126.72315237949987",
		"lat": "37.50489669997758"
	},
	"554": {
		"name": "김제점 ",
		"tel": "063-547-4909",
		"address": "전라북도 김제시 화동길 17",
		"lng": "126.88881673209615",
		"lat": "35.79957347240906"
	},
	"555": {
		"name": "동성로1호점 ",
		"tel": "053-254-4244",
		"address": "대구광역시 중구 동성로2길 55",
		"lng": "128.5965749164531",
		"lat": "35.86849416248638"
	},
	"556": {
		"name": "영월점 ",
		"tel": "033-375-9282",
		"address": "강원도 영월군 영월읍 중앙로 69",
		"lng": "128.47160112144482",
		"lat": "37.183578908003945"
	},
	"557": {
		"name": "율하중앙점",
		"tel": "055-323-2260",
		"address": "경상남도 김해시 율하동 1335-2번지 2층",
		"lng": "128.81403844008088",
		"lat": "35.171972643429896"
	},
	"558": {
		"name": "해남점 ",
		"tel": "061-537-3382",
		"address": "전라남도 해남군 해남읍 구교리 93",
		"lng": "126.59299832994527",
		"lat": "34.577754232014115"
	},
	"559": {
		"name": "마장점",
		"tel": "02-6160-8982",
		"address": "서울 성동구 마장동 772-4",
		"lng": "127.04298050823336",
		"lat": "37.56645250475883"
	},
	"560": {
		"name": "목원대점 ",
		"tel": "042-825-8838",
		"address": "대전광역시 서구 도안동 880번지 201호",
		"lng": "127.3405776053645",
		"lat": "36.33036429377876"
	},
	"561": {
		"name": "오산공군기지점",
		"tel": "031-669-4377",
		"address": "경기 평택시 신장동 298-19 (공군작전사령부내) 2층",
		"lng": "127.0470391524433",
		"lat": "37.07714304599111"
	},
	"562": {
		"name": "천안터미널사거리점 ",
		"tel": "041-566-9277",
		"address": "충남 천안시 동남구 신부동 462-6 터미널프라자 101호",
		"lng": "127.15760572904335",
		"lat": "36.81865487764502"
	},
	"563": {
		"name": "울산혁신도시점",
		"tel": "052-246-9244",
		"address": "울산광역시 중구 유곡동 469-2",
		"lng": "129.2965668891979",
		"lat": "35.56233749552333"
	},
	"564": {
		"name": "주엽역점",
		"tel": "031-913-7759",
		"address": "경기도 고양시 일산서구 중앙로 1444",
		"lng": "126.76015894472091126,
		"lat": "37.6710338092643837
	},
	"565": {
		"name": "선암점",
		"tel": "052-257-5151",
		"address": "울산광역시 남구 선암동 665-3",
		"lng": "129.31653890326862129,
		"lat": "35.5166317772816635
	},
	"566": {
		"name": "대전원내점",
		"tel": "042-5407-0446",
		"address": "대전광역시 유성구 원내동 343-13",
		"lng": "127.3198449431524",
		"lat": "36.297885291956185"
	},
	"567": {
		"name": "감천점",
		"tel": "051-293-9285",
		"address": "부산광역시 사하구 감천로 41(감천동)",
		"lng": "128.99725025121464",
		"lat": "35.09111235078848"
	},
	"568": {
		"name": "칠곡점",
		"tel": "054-313-9955",
		"address": "대구광역시 북구 동천동 896-5 105동",
		"lng": "128.56321557202511",
		"lat": "35.94307175235338"
	},
	"569": {
		"name": "소명점",
		"tel": "032-351-0285",
		"address": "경기도 부천시 원미구 소사동 5-17",
		"lng": "126.79049215631557",
		"lat": "37.486377311080815"
	},
	"570": {
		"name": "밀양삼문점",
		"tel": "055-354-2448",
		"address": "경상남도 밀양시 삼문동 741-3",
		"lng": "128.7482609562271",
		"lat": "35.48125319955707"
	},
	"571": {
		"name": "한라대점",
		"tel": "064-747-9299",
		"address": "제주시 한라대학로 76(노형동)",
		"lng": "126.47843820461864",
		"lat": "33.47614898326597"
	},
	"timestamp": "11/20/2014 13:36:04.11"
}
